[{"scity":"新北市","scityen":"New Taipei City","sna":"YouBike2.0_下庄市場","sarea":"八里區","ar":"舊城路21號(前)","snaen":"YouBike2.0_Shia Juang Market","sareaen":"Bali Dist","aren":"No.21, Jiucheng Rd., Bali Dist","sno":"500201001","tot_quantity":"20","sbi_quantity":"10","mday":"20260119T053201","lat":"25.14678","lng":"121.3999","bemp":"10","act":"1","yb2_quantity":"5","eyb_quantity":"5"},{"scity":"新北市","scityen":"New Taipei City","sna":"YouBike2.0_八里行政中心","sarea":"八里區","ar":"十三行路(靠中山路二段路口西南側人行道)","snaen":"YouBike2.0_Bali District Center","sareaen":"Bali Dist","aren":"Shisanhang Rd. & Zhongshan Rd. Intersection (Southwest)","sno":"500201002","tot_quantity":"20","sbi_quantity":"6","mday":"20260120T041802","lat":"25.15397","lng":"121.40721","bemp":"14","act":"1","yb2_quantity":"5","eyb_quantity":"1"},{"scity":"新北市","scityen":"New Taipei City","sna":"YouBike2.0_八里中庄市場綜合大樓","sarea":"八里區","ar":"中山路一段268巷2號(對面汽車停車場)","snaen":"YouBike2.0_Bali Chung Chuang Market Multi-Purpose Building","sareaen":"Bali Dist","aren":"No. 2, Ln. 268, Sec. 1, Zhongshan Rd., Bali Dist.","sno":"500201003","tot_quantity":"28","sbi_quantity":"4","mday":"20260120T042102","lat":"25.15993","lng":"121.41407","bemp":"24","act":"1","yb2_quantity":"4","eyb_quantity":"0"},{"scity":"新北市","scityen":"New Taipei City","sna":"YouBike2.0_大崁國小","sarea":"八里區","ar":"忠八街2號(前)","snaen":"YouBike2.0_DaKan Elementary School","sareaen":"Bali Dist","aren":"No. 2, Zhong 8th St., Bali Dist.","sno":"500201004","tot_quantity":"20","sbi_quantity":"7","mday":"20260120T050402","lat":"25.16064","lng":"121.41938","bemp":"13","act":"1","yb2_quantity":"6","eyb_quantity":"1"},{"scity":"新北市","scityen":"New Taipei City","sna":"YouBike2.0_龍形停車場","sarea":"八里區","ar":"龍米路一段318號(對面停車場)","snaen":"YouBike2.0_Long Xing Parking Tower","sareaen":"Bali Dist","aren":"No. 318, Sec 1, Longmi Rd.(Opposite)","sno":"500201006","tot_quantity":"40","sbi_quantity":"18","mday":"20260120T055902","lat":"25.13041","lng":"121.4513","bemp":"22","act":"1","yb2_quantity":"12","eyb_quantity":"6"},{"scity":"新北市","scityen":"New Taipei City","sna":"YouBike2.0_十三行博物館","sarea":"八里區","ar":"博物館路183號(對面)","snaen":"YouBike2.0_Shihsanhang Museum of Archaeology","sareaen":"Bali Dist","aren":"No. 183, Museum Rd., Bali Dist.(opposite)","sno":"500201007","tot_quantity":"46","sbi_quantity":"13","mday":"20260120T044902","lat":"25.157","lng":"121.406","bemp":"33","act":"1","yb2_quantity":"7","eyb_quantity":"6"},{"scity":"新北市","scityen":"New Taipei City","sna":"YouBike2.0_八里區民活動中心","sarea":"八里區","ar":"中山路二段356巷12號(旁)","snaen":"YouBike2.0_Bali Activity Center","sareaen":"Bali Dist","aren":"No. 12, Ln. 356, Sec. 2, Zhongshan Rd.","sno":"500201008","tot_quantity":"14","sbi_quantity":"4","mday":"20260120T043302","lat":"25.14933","lng":"121.40126","bemp":"10","act":"1","yb2_quantity":"3","eyb_quantity":"1"},{"scity":"新北市","scityen":"New Taipei City","sna":"YouBike2.0_挖仔尾自然生態保留區","sarea":"八里區","ar":"博物館路/挖仔尾街口(西側)","snaen":"YouBike2.0_Waziwei Ecological Reserves","sareaen":"Bali Dist","aren":"Museum Rd. & Waziwei St. Intersection(West)","sno":"500201009","tot_quantity":"15","sbi_quantity":"9","mday":"20260120T051402","lat":"25.16419","lng":"121.41586","bemp":"6","act":"1","yb2_quantity":"8","eyb_quantity":"1"},{"scity":"新北市","scityen":"New Taipei City","sna":"YouBike2.0_文昌公園","sarea":"八里區","ar":"中山路二段/文昌路(東側)","snaen":"YouBike2.0_Wenchang Park","sareaen":"Bali Dist","aren":"Sec. 2, Zhongshan Rd. & Wenchang Rd.(East)","sno":"500201010","tot_quantity":"15","sbi_quantity":"7","mday":"20260120T044003","lat":"25.15709","lng":"121.41033","bemp":"8","act":"1","yb2_quantity":"7","eyb_quantity":"0"},{"scity":"新北市","scityen":"New Taipei City","sna":"YouBike2.0_八里國小","sarea":"八里區","ar":"中山路二段251號(對面)","snaen":"YouBike2.0_Bali Elementary School","sareaen":"Bali Dist","aren":"No. 251, Sec. 2, Zhongshan Rd.(Opposite)","sno":"500201011","tot_quantity":"15","sbi_quantity":"3","mday":"20260120T085002","lat":"25.14896","lng":"121.4026","bemp":"12","act":"1","yb2_quantity":"0","eyb_quantity":"3"},{"scity":"新北市","scityen":"New Taipei City","sna":"YouBike2.0_八里文化公園(棒球場)","sarea":"八里區","ar":"忠孝路與挖仔街口(棒球場公園入口)","snaen":"YouBike2.0_Bali Wenhua Park","sareaen":"Bali Dist","aren":"Zhongxiao & Waziwei street entrance (baseball park)","sno":"500201012","tot_quantity":"60","sbi_quantity":"14","mday":"20260120T041802","lat":"25.16359","lng":"121.41251","bemp":"46","act":"1","yb2_quantity":"14","eyb_quantity":"0"},{"scity":"新北市","scityen":"New Taipei City","sna":"YouBike2.0_水興公","sarea":"八里區","ar":"觀海大道/忠四街(北側)","snaen":"YouBike2.0_Shuixinggong","sareaen":"Bali Dist","aren":"Guanhai Blvd. & Zhong 4th St. (North west)","sno":"500201013","tot_quantity":"15","sbi_quantity":"7","mday":"20260120T052702","lat":"25.16208","lng":"121.42509","bemp":"8","act":"1","yb2_quantity":"4","eyb_quantity":"3"},{"scity":"新北市","scityen":"New Taipei City","sna":"YouBike2.0_片仔溝公園","sarea":"八里區","ar":"中華路二段210號旁","snaen":"YouBike2.0_Pianzaigou Park","sareaen":"Bali Dist","aren":"No. 210, Sec. 2, Zhonghua Rd. (Side)","sno":"500201014","tot_quantity":"20","sbi_quantity":"4","mday":"20260118T084004","lat":"25.15020","lng":"121.40581","bemp":"16","act":"1","yb2_quantity":"3","eyb_quantity":"1"},{"scity":"新北市","scityen":"New Taipei City","sna":"YouBike2.0_八里福朋喜來登酒店","sarea":"八里區","ar":"觀海大道8號","snaen":"YouBike2.0_Four Points by Sheraton Taipei Bali","sareaen":"Bali Dist","aren":"No. 8, Guanhai Blvd.","sno":"500201015","tot_quantity":"30","sbi_quantity":"9","mday":"20260120T053003","lat":"25.15922","lng":"121.42945","bemp":"19","act":"1","yb2_quantity":"7","eyb_quantity":"2"},{"scity":"新北市","scityen":"New Taipei City","sna":"YouBike2.0_訊塘社區公園","sarea":"八里區","ar":"商港路/中山路二段口(東北側)","snaen":"YouBike2.0_Xuntang Community Park","sareaen":"Bali Dist","aren":"Shanggang Rd. & Sec. 2, Zhongshan Rd. (Northeast)","sno":"500201016","tot_quantity":"13","sbi_quantity":"4","mday":"20260119T134002","lat":"25.14550","lng":"121.39609","bemp":"9","act":"1","yb2_quantity":"4","eyb_quantity":"0"},{"scity":"新北市","scityen":"New Taipei City","sna":"YouBike2.0_商港公園(商港八商港一路口)","sarea":"八里區","ar":"商港八路/商港一路口","snaen":"YouBike2.0_Bali ShangGang Park (Shanggang 8th Rd. Intersection)","sareaen":"Bali Dist","aren":"Shanggang 8th Rd. & Shanggang 1st Rd. Intersection","sno":"500201017","tot_quantity":"15","sbi_quantity":"4","mday":"20260119T111002","lat":"25.15039","lng":"121.40026","bemp":"11","act":"1","yb2_quantity":"3","eyb_quantity":"1"},{"scity":"新北市","scityen":"New Taipei City","sna":"YouBike2.0_商港公園(商港七商港一路口)","sarea":"八里區","ar":"商港七路/商港一路口","snaen":"YouBike2.0_Bali ShangGang Park (Shanggang 7th Rd. Intersection)","sareaen":"Bali Dist","aren":"Shanggang 7th Rd. & Shanggang 1st Rd. Intersection","sno":"500201018","tot_quantity":"15","sbi_quantity":"5","mday":"20260119T075002","lat":"25.14916","lng":"121.39841","bemp":"10","act":"1","yb2_quantity":"4","eyb_quantity":"1"},{"scity":"新北市","scityen":"New Taipei City","sna":"YouBike2.0_渡船頭平面停車場","sarea":"八里區","ar":"渡船頭路/龍米路二段口(西北側)","snaen":"YouBike2.0_Duchuantou Parking Lot","sareaen":"Bali Dist","aren":"Duchuantou Rd. & Sec. 2, Longmi Rd. Intersection (Northwest)","sno":"500201019","tot_quantity":"33","sbi_quantity":"13","mday":"20260120T054803","lat":"25.15687","lng":"121.43527","bemp":"20","act":"1","yb2_quantity":"5","eyb_quantity":"8"},{"scity":"新北市","scityen":"New Taipei City","sna":"YouBike2.0_訊塘廣場(義民中華路口)","sarea":"八里區","ar":"義民街/中華路三段口","snaen":"YouBike2.0_XunTang Square (YiMin St. & ZhongHua Rd. Intersection)","sareaen":"Bali Dist","aren":"YiMin St. & Sec. 3, ZhongHua Rd. Intersection","sno":"500201020","tot_quantity":"21","sbi_quantity":"5","mday":"20260118T134003","lat":"25.14256","lng":"121.39564","bemp":"16","act":"1","yb2_quantity":"5","eyb_quantity":"0"},{"scity":"新北市","scityen":"New Taipei City","sna":"YouBike2.0_八里停五平面停車場","sarea":"八里區","ar":"賢三街/大崁二街口(西南側)","snaen":"YouBike2.0_BaLi 5th Car Park","sareaen":"Bali Dist","aren":"Xian 3rd St. & Dakan 2nd St. (Southwest)","sno":"500201021","tot_quantity":"30","sbi_quantity":"10","mday":"20260118T051802","lat":"25.15779","lng":"121.41758","bemp":"20","act":"1","yb2_quantity":"7","eyb_quantity":"3"},{"scity":"新北市","scityen":"New Taipei City","sna":"YouBike2.0_頂罟公園","sarea":"八里區","ar":"商港一路/商港九路(南側)","snaen":"YouBike2.0_DingGu Park","sareaen":"Bali Dist","aren":"ShangGang 1st Rd. & ShangGang 9th Rd. (South)","sno":"500201022","tot_quantity":"15","sbi_quantity":"6","mday":"20260118T194316","lat":"25.15330","lng":"121.40413","bemp":"9","act":"1","yb2_quantity":"6","eyb_quantity":"0"},{"scity":"新北市","scityen":"New Taipei City","sna":"YouBike2.0_狀元公園","sarea":"八里區","ar":"狀元路/文昌五街(西北側)","snaen":"YouBike2.0_ZhuangYuan Park","sareaen":"Bali Dist","aren":"ZhuangYuan Rd. & WenChang 5th St. (Northwest)","sno":"500201023","tot_quantity":"20","sbi_quantity":"4","mday":"20260119T035701","lat":"25.15450","lng":"121.41036","bemp":"14","act":"1","yb2_quantity":"4","eyb_quantity":"0"},{"scity":"新北市","scityen":"New Taipei City","sna":"YouBike2.0_商港三頂罟二路口","sarea":"八里區","ar":"商港三路101號(西北側)","snaen":"YouBike2.0_ShangGang 3rd Rd. & DingGu 2nd Rd. Intersection","sareaen":"Bali Dist","aren":"No. 101, ShangGang 3rd Rd. (Northwest)","sno":"500201024","tot_quantity":"25","sbi_quantity":"12","mday":"20260119T192002","lat":"25.15333","lng":"121.40168","bemp":"12","act":"1","yb2_quantity":"12","eyb_quantity":"0"},{"scity":"新北市","scityen":"New Taipei City","sna":"YouBike2.0_商港六商港三路口","sarea":"八里區","ar":"商港六路/商港三路(西北側)","snaen":"YouBike2.0_ShangGang 6th Rd. & ShangGang 3rd Rd. Intersection","sareaen":"Bali Dist","aren":"ShangGang 6th Rd. & ShangGang 3rd Rd. (Northwest)","sno":"500201025","tot_quantity":"15","sbi_quantity":"5","mday":"20260120T061801","lat":"25.14968","lng":"121.39589","bemp":"9","act":"1","yb2_quantity":"5","eyb_quantity":"0"},{"scity":"新北市","scityen":"New Taipei City","sna":"YouBike2.0_訊庄埔公園","sarea":"八里區","ar":"訊塘二路/添丁街(西北側)","snaen":"YouBike2.0_Xunzhuangpu Park","sareaen":"Bali Dist","aren":"XunTang 2nd Rd. & TianDing St. (Northwest)","sno":"500201026","tot_quantity":"15","sbi_quantity":"4","mday":"20260118T051802","lat":"25.14244","lng":"121.39222","bemp":"11","act":"1","yb2_quantity":"3","eyb_quantity":"1"},{"scity":"新北市","scityen":"New Taipei City","sna":"YouBike2.0_八里左岸自行車道(4.4K福德宮)","sarea":"八里區","ar":"龍米路二段86-9號(自行車道旁)","snaen":"YouBike2.0_Bali Left Bank Cycling Route (4.4K)","sareaen":"Bali Dist","aren":"No. 86-9, Sec. 2, LongMi Rd.","sno":"500201027","tot_quantity":"15","sbi_quantity":"12","mday":"20260119T142515","lat":"25.14315","lng":"121.44789","bemp":"1","act":"1","yb2_quantity":"12","eyb_quantity":"0"},{"scity":"新北市","scityen":"New Taipei City","sna":"YouBike2.0_中山賢一街口","sarea":"八里區","ar":"中山路一段25號","snaen":"YouBike2.0_ZhongShan Rd. & Xian 1st St. Intersection","sareaen":"Bali Dist","aren":"No. 25, Sec. 1, ZhongShan Rd.","sno":"500201028","tot_quantity":"17","sbi_quantity":"13","mday":"20260118T182615","lat":"25.15916","lng":"121.42144","bemp":"4","act":"1","yb2_quantity":"8","eyb_quantity":"5"},{"scity":"新北市","scityen":"New Taipei City","sna":"YouBike2.0_商港一十三行路口","sarea":"八里區","ar":"商港一路/十三行路口(南側)","snaen":"YouBike2.0_ShangGang 1st Rd. & ShiSanHang Rd. Intersection","sareaen":"Bali Dist","aren":"ShangGang 1st Rd. & ShiSanHang Rd. (South)","sno":"500201029","tot_quantity":"30","sbi_quantity":"7","mday":"20260120T025702","lat":"25.15483","lng":"121.40558","bemp":"23","act":"1","yb2_quantity":"5","eyb_quantity":"2"},{"scity":"新北市","scityen":"New Taipei City","sna":"YouBike2.0_淺水灣","sarea":"三芝區","ar":"北勢子42-11號西側","snaen":"YouBike2.0_Qianshui Bay","sareaen":"Sanzhi Dist","aren":"No. 42-11, Beishizi, Sanzhi Dist.(opposite)","sno":"500202001","tot_quantity":"48","sbi_quantity":"13","mday":"20260120T060215","lat":"25.25232","lng":"121.47131","bemp":"35","act":"1","yb2_quantity":"13","eyb_quantity":"0"},{"scity":"新北市","scityen":"New Taipei City","sna":"YouBike2.0_三芝國中","sarea":"三芝區","ar":"淡金路一段38號","snaen":"YouBike2.0_Sanzhi Junior High School","sareaen":"Sanzhi Dist","aren":"No. 38, Sec. 1, Danjin Rd.","sno":"500202002","tot_quantity":"14","sbi_quantity":"8","mday":"20260120T050402","lat":"25.25898","lng":"121.50182","bemp":"6","act":"1","yb2_quantity":"8","eyb_quantity":"0"},{"scity":"新北市","scityen":"New Taipei City","sna":"YouBike2.0_下庄市場","sarea":"八里區","ar":"舊城路21號(前)","snaen":"YouBike2.0_Shia Juang Market","sareaen":"Bali Dist","aren":"No.21, Jiucheng Rd., Bali Dist","sno":"500201001","tot_quantity":"20","sbi_quantity":"10","mday":"20260119T053201","lat":"25.14678","lng":"121.3999","bemp":"10","act":"1","yb2_quantity":"5","eyb_quantity":"5"},{"scity":"新北市","scityen":"New Taipei City","sna":"YouBike2.0_八里行政中心","sarea":"八里區","ar":"十三行路(靠中山路二段路口西南側人行道)","snaen":"YouBike2.0_Bali District Center","sareaen":"Bali Dist","aren":"Shisanhang Rd. & Zhongshan Rd. Intersection (Southwest)","sno":"500201002","tot_quantity":"20","sbi_quantity":"6","mday":"20260120T041802","lat":"25.15397","lng":"121.40721","bemp":"14","act":"1","yb2_quantity":"5","eyb_quantity":"1"},{"scity":"新北市","scityen":"New Taipei City","sna":"YouBike2.0_八里中庄市場綜合大樓","sarea":"八里區","ar":"中山路一段268巷2號(對面汽車停車場)","snaen":"YouBike2.0_Bali Chung Chuang Market Multi-Purpose Building","sareaen":"Bali Dist","aren":"No. 2, Ln. 268, Sec. 1, Zhongshan Rd., Bali Dist.","sno":"500201003","tot_quantity":"28","sbi_quantity":"4","mday":"20260120T042102","lat":"25.15993","lng":"121.41407","bemp":"24","act":"1","yb2_quantity":"4","eyb_quantity":"0"},{"scity":"新北市","scityen":"New Taipei City","sna":"YouBike2.0_大崁國小","sarea":"八里區","ar":"忠八街2號(前)","snaen":"YouBike2.0_DaKan Elementary School","sareaen":"Bali Dist","aren":"No. 2, Zhong 8th St., Bali Dist.","sno":"500201004","tot_quantity":"20","sbi_quantity":"7","mday":"20260120T050402","lat":"25.16064","lng":"121.41938","bemp":"13","act":"1","yb2_quantity":"6","eyb_quantity":"1"},{"scity":"新北市","scityen":"New Taipei City","sna":"YouBike2.0_龍形停車場","sarea":"八里區","ar":"龍米路一段318號(對面停車場)","snaen":"YouBike2.0_Long Xing Parking Tower","sareaen":"Bali Dist","aren":"No. 318, Sec 1, Longmi Rd.(Opposite)","sno":"500201006","tot_quantity":"40","sbi_quantity":"18","mday":"20260120T055902","lat":"25.13041","lng":"121.4513","bemp":"22","act":"1","yb2_quantity":"12","eyb_quantity":"6"},{"scity":"新北市","scityen":"New Taipei City","sna":"YouBike2.0_十三行博物館","sarea":"八里區","ar":"博物館路183號(對面)","snaen":"YouBike2.0_Shihsanhang Museum of Archaeology","sareaen":"Bali Dist","aren":"No. 183, Museum Rd., Bali Dist.(opposite)","sno":"500201007","tot_quantity":"46","sbi_quantity":"13","mday":"20260120T044902","lat":"25.157","lng":"121.406","bemp":"33","act":"1","yb2_quantity":"7","eyb_quantity":"6"},{"scity":"新北市","scityen":"New Taipei City","sna":"YouBike2.0_八里區民活動中心","sarea":"八里區","ar":"中山路二段356巷12號(旁)","snaen":"YouBike2.0_Bali Activity Center","sareaen":"Bali Dist","aren":"No. 12, Ln. 356, Sec. 2, Zhongshan Rd.","sno":"500201008","tot_quantity":"14","sbi_quantity":"4","mday":"20260120T043302","lat":"25.14933","lng":"121.40126","bemp":"10","act":"1","yb2_quantity":"3","eyb_quantity":"1"},{"scity":"新北市","scityen":"New Taipei City","sna":"YouBike2.0_挖仔尾自然生態保留區","sarea":"八里區","ar":"博物館路/挖仔尾街口(西側)","snaen":"YouBike2.0_Waziwei Ecological Reserves","sareaen":"Bali Dist","aren":"Museum Rd. & Waziwei St. Intersection(West)","sno":"500201009","tot_quantity":"15","sbi_quantity":"9","mday":"20260120T051402","lat":"25.16419","lng":"121.41586","bemp":"6","act":"1","yb2_quantity":"8","eyb_quantity":"1"},{"scity":"新北市","scityen":"New Taipei City","sna":"YouBike2.0_文昌公園","sarea":"八里區","ar":"中山路二段/文昌路(東側)","snaen":"YouBike2.0_Wenchang Park","sareaen":"Bali Dist","aren":"Sec. 2, Zhongshan Rd. & Wenchang Rd.(East)","sno":"500201010","tot_quantity":"15","sbi_quantity":"7","mday":"20260120T044003","lat":"25.15709","lng":"121.41033","bemp":"8","act":"1","yb2_quantity":"7","eyb_quantity":"0"},{"scity":"新北市","scityen":"New Taipei City","sna":"YouBike2.0_八里國小","sarea":"八里區","ar":"中山路二段251號(對面)","snaen":"YouBike2.0_Bali Elementary School","sareaen":"Bali Dist","aren":"No. 251, Sec. 2, Zhongshan Rd.(Opposite)","sno":"500201011","tot_quantity":"15","sbi_quantity":"3","mday":"20260120T085002","lat":"25.14896","lng":"121.4026","bemp":"12","act":"1","yb2_quantity":"0","eyb_quantity":"3"},{"scity":"新北市","scityen":"New Taipei City","sna":"YouBike2.0_八里文化公園(棒球場)","sarea":"八里區","ar":"忠孝路與挖仔街口(棒球場公園入口)","snaen":"YouBike2.0_Bali Wenhua Park","sareaen":"Bali Dist","aren":"Zhongxiao & Waziwei street entrance (baseball park)","sno":"500201012","tot_quantity":"60","sbi_quantity":"14","mday":"20260120T041802","lat":"25.16359","lng":"121.41251","bemp":"46","act":"1","yb2_quantity":"14","eyb_quantity":"0"},{"scity":"新北市","scityen":"New Taipei City","sna":"YouBike2.0_水興公","sarea":"八里區","ar":"觀海大道/忠四街(北側)","snaen":"YouBike2.0_Shuixinggong","sareaen":"Bali Dist","aren":"Guanhai Blvd. & Zhong 4th St. (North west)","sno":"500201013","tot_quantity":"15","sbi_quantity":"7","mday":"20260120T052702","lat":"25.16208","lng":"121.42509","bemp":"8","act":"1","yb2_quantity":"4","eyb_quantity":"3"},{"scity":"新北市","scityen":"New Taipei City","sna":"YouBike2.0_片仔溝公園","sarea":"八里區","ar":"中華路二段210號旁","snaen":"YouBike2.0_Pianzaigou Park","sareaen":"Bali Dist","aren":"No. 210, Sec. 2, Zhonghua Rd. (Side)","sno":"500201014","tot_quantity":"20","sbi_quantity":"4","mday":"20260118T084004","lat":"25.15020","lng":"121.40581","bemp":"16","act":"1","yb2_quantity":"3","eyb_quantity":"1"},{"scity":"新北市","scityen":"New Taipei City","sna":"YouBike2.0_八里福朋喜來登酒店","sarea":"八里區","ar":"觀海大道8號","snaen":"YouBike2.0_Four Points by Sheraton Taipei Bali","sareaen":"Bali Dist","aren":"No. 8, Guanhai Blvd.","sno":"500201015","tot_quantity":"30","sbi_quantity":"9","mday":"20260120T053003","lat":"25.15922","lng":"121.42945","bemp":"19","act":"1","yb2_quantity":"7","eyb_quantity":"2"},{"scity":"新北市","scityen":"New Taipei City","sna":"YouBike2.0_訊塘社區公園","sarea":"八里區","ar":"商港路/中山路二段口(東北側)","snaen":"YouBike2.0_Xuntang Community Park","sareaen":"Bali Dist","aren":"Shanggang Rd. & Sec. 2, Zhongshan Rd. (Northeast)","sno":"500201016","tot_quantity":"13","sbi_quantity":"4","mday":"20260119T134002","lat":"25.14550","lng":"121.39609","bemp":"9","act":"1","yb2_quantity":"4","eyb_quantity":"0"},{"scity":"新北市","scityen":"New Taipei City","sna":"YouBike2.0_商港公園(商港八商港一路口)","sarea":"八里區","ar":"商港八路/商港一路口","snaen":"YouBike2.0_Bali ShangGang Park (Shanggang 8th Rd. Intersection)","sareaen":"Bali Dist","aren":"Shanggang 8th Rd. & Shanggang 1st Rd. Intersection","sno":"500201017","tot_quantity":"15","sbi_quantity":"4","mday":"20260119T111002","lat":"25.15039","lng":"121.40026","bemp":"11","act":"1","yb2_quantity":"3","eyb_quantity":"1"},{"scity":"新北市","scityen":"New Taipei City","sna":"YouBike2.0_商港公園(商港七商港一路口)","sarea":"八里區","ar":"商港七路/商港一路口","snaen":"YouBike2.0_Bali ShangGang Park (Shanggang 7th Rd. Intersection)","sareaen":"Bali Dist","aren":"Shanggang 7th Rd. & Shanggang 1st Rd. Intersection","sno":"500201018","tot_quantity":"15","sbi_quantity":"5","mday":"20260119T075002","lat":"25.14916","lng":"121.39841","bemp":"10","act":"1","yb2_quantity":"4","eyb_quantity":"1"},{"scity":"新北市","scityen":"New Taipei City","sna":"YouBike2.0_渡船頭平面停車場","sarea":"八里區","ar":"渡船頭路/龍米路二段口(西北側)","snaen":"YouBike2.0_Duchuantou Parking Lot","sareaen":"Bali Dist","aren":"Duchuantou Rd. & Sec. 2, Longmi Rd. Intersection (Northwest)","sno":"500201019","tot_quantity":"33","sbi_quantity":"13","mday":"20260120T054803","lat":"25.15687","lng":"121.43527","bemp":"20","act":"1","yb2_quantity":"5","eyb_quantity":"8"},{"scity":"新北市","scityen":"New Taipei City","sna":"YouBike2.0_訊塘廣場(義民中華路口)","sarea":"八里區","ar":"義民街/中華路三段口","snaen":"YouBike2.0_XunTang Square (YiMin St. & ZhongHua Rd. Intersection)","sareaen":"Bali Dist","aren":"YiMin St. & Sec. 3, ZhongHua Rd. Intersection","sno":"500201020","tot_quantity":"21","sbi_quantity":"5","mday":"20260118T134003","lat":"25.14256","lng":"121.39564","bemp":"16","act":"1","yb2_quantity":"5","eyb_quantity":"0"},{"scity":"新北市","scityen":"New Taipei City","sna":"YouBike2.0_八里停五平面停車場","sarea":"八里區","ar":"賢三街/大崁二街口(西南側)","snaen":"YouBike2.0_BaLi 5th Car Park","sareaen":"Bali Dist","aren":"Xian 3rd St. & Dakan 2nd St. (Southwest)","sno":"500201021","tot_quantity":"30","sbi_quantity":"10","mday":"20260118T051802","lat":"25.15779","lng":"121.41758","bemp":"20","act":"1","yb2_quantity":"7","eyb_quantity":"3"},{"scity":"新北市","scityen":"New Taipei City","sna":"YouBike2.0_頂罟公園","sarea":"八里區","ar":"商港一路/商港九路(南側)","snaen":"YouBike2.0_DingGu Park","sareaen":"Bali Dist","aren":"ShangGang 1st Rd. & ShangGang 9th Rd. (South)","sno":"500201022","tot_quantity":"15","sbi_quantity":"6","mday":"20260118T194316","lat":"25.15330","lng":"121.40413","bemp":"9","act":"1","yb2_quantity":"6","eyb_quantity":"0"},{"scity":"新北市","scityen":"New Taipei City","sna":"YouBike2.0_狀元公園","sarea":"八里區","ar":"狀元路/文昌五街(西北側)","snaen":"YouBike2.0_ZhuangYuan Park","sareaen":"Bali Dist","aren":"ZhuangYuan Rd. & WenChang 5th St. (Northwest)","sno":"500201023","tot_quantity":"20","sbi_quantity":"4","mday":"20260119T035701","lat":"25.15450","lng":"121.41036","bemp":"14","act":"1","yb2_quantity":"4","eyb_quantity":"0"},{"scity":"新北市","scityen":"New Taipei City","sna":"YouBike2.0_商港三頂罟二路口","sarea":"八里區","ar":"商港三路101號(西北側)","snaen":"YouBike2.0_ShangGang 3rd Rd. & DingGu 2nd Rd. Intersection","sareaen":"Bali Dist","aren":"No. 101, ShangGang 3rd Rd. (Northwest)","sno":"500201024","tot_quantity":"25","sbi_quantity":"12","mday":"20260119T192002","lat":"25.15333","lng":"121.40168","bemp":"12","act":"1","yb2_quantity":"12","eyb_quantity":"0"},{"scity":"新北市","scityen":"New Taipei City","sna":"YouBike2.0_商港六商港三路口","sarea":"八里區","ar":"商港六路/商港三路(西北側)","snaen":"YouBike2.0_ShangGang 6th Rd. & ShangGang 3rd Rd. Intersection","sareaen":"Bali Dist","aren":"ShangGang 6th Rd. & ShangGang 3rd Rd. (Northwest)","sno":"500201025","tot_quantity":"15","sbi_quantity":"5","mday":"20260120T061801","lat":"25.14968","lng":"121.39589","bemp":"9","act":"1","yb2_quantity":"5","eyb_quantity":"0"},{"scity":"新北市","scityen":"New Taipei City","sna":"YouBike2.0_訊庄埔公園","sarea":"八里區","ar":"訊塘二路/添丁街(西北側)","snaen":"YouBike2.0_Xunzhuangpu Park","sareaen":"Bali Dist","aren":"XunTang 2nd Rd. & TianDing St. (Northwest)","sno":"500201026","tot_quantity":"15","sbi_quantity":"4","mday":"20260118T051802","lat":"25.14244","lng":"121.39222","bemp":"11","act":"1","yb2_quantity":"3","eyb_quantity":"1"},{"scity":"新北市","scityen":"New Taipei City","sna":"YouBike2.0_八里左岸自行車道(4.4K福德宮)","sarea":"八里區","ar":"龍米路二段86-9號(自行車道旁)","snaen":"YouBike2.0_Bali Left Bank Cycling Route (4.4K)","sareaen":"Bali Dist","aren":"No. 86-9, Sec. 2, LongMi Rd.","sno":"500201027","tot_quantity":"15","sbi_quantity":"12","mday":"20260119T142515","lat":"25.14315","lng":"121.44789","bemp":"1","act":"1","yb2_quantity":"12","eyb_quantity":"0"},{"scity":"新北市","scityen":"New Taipei City","sna":"YouBike2.0_中山賢一街口","sarea":"八里區","ar":"中山路一段25號","snaen":"YouBike2.0_ZhongShan Rd. & Xian 1st St. Intersection","sareaen":"Bali Dist","aren":"No. 25, Sec. 1, ZhongShan Rd.","sno":"500201028","tot_quantity":"17","sbi_quantity":"13","mday":"20260118T182615","lat":"25.15916","lng":"121.42144","bemp":"4","act":"1","yb2_quantity":"8","eyb_quantity":"5"},{"scity":"新北市","scityen":"New Taipei City","sna":"YouBike2.0_商港一十三行路口","sarea":"八里區","ar":"商港一路/十三行路口(南側)","snaen":"YouBike2.0_ShangGang 1st Rd. & ShiSanHang Rd. Intersection","sareaen":"Bali Dist","aren":"ShangGang 1st Rd. & ShiSanHang Rd. (South)","sno":"500201029","tot_quantity":"30","sbi_quantity":"7","mday":"20260120T025702","lat":"25.15483","lng":"121.40558","bemp":"23","act":"1","yb2_quantity":"5","eyb_quantity":"2"},{"scity":"新北市","scityen":"New Taipei City","sna":"YouBike2.0_淺水灣","sarea":"三芝區","ar":"北勢子42-11號西側","snaen":"YouBike2.0_Qianshui Bay","sareaen":"Sanzhi Dist","aren":"No. 42-11, Beishizi, Sanzhi Dist.(opposite)","sno":"500202001","tot_quantity":"48","sbi_quantity":"13","mday":"20260120T060215","lat":"25.25232","lng":"121.47131","bemp":"35","act":"1","yb2_quantity":"13","eyb_quantity":"0"},{"scity":"新北市","scityen":"New Taipei City","sna":"YouBike2.0_三芝國中","sarea":"三芝區","ar":"淡金路一段38號","snaen":"YouBike2.0_Sanzhi Junior High School","sareaen":"Sanzhi Dist","aren":"No. 38, Sec. 1, Danjin Rd.","sno":"500202002","tot_quantity":"14","sbi_quantity":"8","mday":"20260120T050402","lat":"25.25898","lng":"121.50182","bemp":"6","act":"1","yb2_quantity":"8","eyb_quantity":"0"},{"scity":"新北市","scityen":"New Taipei City","sna":"YouBike2.0_下庄市場","sarea":"八里區","ar":"舊城路21號(前)","snaen":"YouBike2.0_Shia Juang Market","sareaen":"Bali Dist","aren":"No.21, Jiucheng Rd., Bali Dist","sno":"500201001","tot_quantity":"20","sbi_quantity":"10","mday":"20260119T053201","lat":"25.14678","lng":"121.3999","bemp":"10","act":"1","yb2_quantity":"5","eyb_quantity":"5"},{"scity":"新北市","scityen":"New Taipei City","sna":"YouBike2.0_八里行政中心","sarea":"八里區","ar":"十三行路(靠中山路二段路口西南側人行道)","snaen":"YouBike2.0_Bali District Center","sareaen":"Bali Dist","aren":"Shisanhang Rd. & Zhongshan Rd. Intersection (Southwest)","sno":"500201002","tot_quantity":"20","sbi_quantity":"6","mday":"20260120T041802","lat":"25.15397","lng":"121.40721","bemp":"14","act":"1","yb2_quantity":"5","eyb_quantity":"1"},{"scity":"新北市","scityen":"New Taipei City","sna":"YouBike2.0_八里中庄市場綜合大樓","sarea":"八里區","ar":"中山路一段268巷2號(對面汽車停車場)","snaen":"YouBike2.0_Bali Chung Chuang Market Multi-Purpose Building","sareaen":"Bali Dist","aren":"No. 2, Ln. 268, Sec. 1, Zhongshan Rd., Bali Dist.","sno":"500201003","tot_quantity":"28","sbi_quantity":"4","mday":"20260120T042102","lat":"25.15993","lng":"121.41407","bemp":"24","act":"1","yb2_quantity":"4","eyb_quantity":"0"},{"scity":"新北市","scityen":"New Taipei City","sna":"YouBike2.0_大崁國小","sarea":"八里區","ar":"忠八街2號(前)","snaen":"YouBike2.0_DaKan Elementary School","sareaen":"Bali Dist","aren":"No. 2, Zhong 8th St., Bali Dist.","sno":"500201004","tot_quantity":"20","sbi_quantity":"7","mday":"20260120T050402","lat":"25.16064","lng":"121.41938","bemp":"13","act":"1","yb2_quantity":"6","eyb_quantity":"1"},{"scity":"新北市","scityen":"New Taipei City","sna":"YouBike2.0_龍形停車場","sarea":"八里區","ar":"龍米路一段318號(對面停車場)","snaen":"YouBike2.0_Long Xing Parking Tower","sareaen":"Bali Dist","aren":"No. 318, Sec 1, Longmi Rd.(Opposite)","sno":"500201006","tot_quantity":"40","sbi_quantity":"18","mday":"20260120T055902","lat":"25.13041","lng":"121.4513","bemp":"22","act":"1","yb2_quantity":"12","eyb_quantity":"6"},{"scity":"新北市","scityen":"New Taipei City","sna":"YouBike2.0_十三行博物館","sarea":"八里區","ar":"博物館路183號(對面)","snaen":"YouBike2.0_Shihsanhang Museum of Archaeology","sareaen":"Bali Dist","aren":"No. 183, Museum Rd., Bali Dist.(opposite)","sno":"500201007","tot_quantity":"46","sbi_quantity":"13","mday":"20260120T044902","lat":"25.157","lng":"121.406","bemp":"33","act":"1","yb2_quantity":"7","eyb_quantity":"6"},{"scity":"新北市","scityen":"New Taipei City","sna":"YouBike2.0_八里區民活動中心","sarea":"八里區","ar":"中山路二段356巷12號(旁)","snaen":"YouBike2.0_Bali Activity Center","sareaen":"Bali Dist","aren":"No. 12, Ln. 356, Sec. 2, Zhongshan Rd.","sno":"500201008","tot_quantity":"14","sbi_quantity":"4","mday":"20260120T043302","lat":"25.14933","lng":"121.40126","bemp":"10","act":"1","yb2_quantity":"3","eyb_quantity":"1"},{"scity":"新北市","scityen":"New Taipei City","sna":"YouBike2.0_挖仔尾自然生態保留區","sarea":"八里區","ar":"博物館路/挖仔尾街口(西側)","snaen":"YouBike2.0_Waziwei Ecological Reserves","sareaen":"Bali Dist","aren":"Museum Rd. & Waziwei St. Intersection(West)","sno":"500201009","tot_quantity":"15","sbi_quantity":"9","mday":"20260120T051402","lat":"25.16419","lng":"121.41586","bemp":"6","act":"1","yb2_quantity":"8","eyb_quantity":"1"},{"scity":"新北市","scityen":"New Taipei City","sna":"YouBike2.0_文昌公園","sarea":"八里區","ar":"中山路二段/文昌路(東側)","snaen":"YouBike2.0_Wenchang Park","sareaen":"Bali Dist","aren":"Sec. 2, Zhongshan Rd. & Wenchang Rd.(East)","sno":"500201010","tot_quantity":"15","sbi_quantity":"7","mday":"20260120T044003","lat":"25.15709","lng":"121.41033","bemp":"8","act":"1","yb2_quantity":"7","eyb_quantity":"0"},{"scity":"新北市","scityen":"New Taipei City","sna":"YouBike2.0_八里國小","sarea":"八里區","ar":"中山路二段251號(對面)","snaen":"YouBike2.0_Bali Elementary School","sareaen":"Bali Dist","aren":"No. 251, Sec. 2, Zhongshan Rd.(Opposite)","sno":"500201011","tot_quantity":"15","sbi_quantity":"3","mday":"20260120T085002","lat":"25.14896","lng":"121.4026","bemp":"12","act":"1","yb2_quantity":"0","eyb_quantity":"3"},{"scity":"新北市","scityen":"New Taipei City","sna":"YouBike2.0_八里文化公園(棒球場)","sarea":"八里區","ar":"忠孝路與挖仔街口(棒球場公園入口)","snaen":"YouBike2.0_Bali Wenhua Park","sareaen":"Bali Dist","aren":"Zhongxiao & Waziwei street entrance (baseball park)","sno":"500201012","tot_quantity":"60","sbi_quantity":"14","mday":"20260120T041802","lat":"25.16359","lng":"121.41251","bemp":"46","act":"1","yb2_quantity":"14","eyb_quantity":"0"},{"scity":"新北市","scityen":"New Taipei City","sna":"YouBike2.0_水興公","sarea":"八里區","ar":"觀海大道/忠四街(北側)","snaen":"YouBike2.0_Shuixinggong","sareaen":"Bali Dist","aren":"Guanhai Blvd. & Zhong 4th St. (North west)","sno":"500201013","tot_quantity":"15","sbi_quantity":"7","mday":"20260120T052702","lat":"25.16208","lng":"121.42509","bemp":"8","act":"1","yb2_quantity":"4","eyb_quantity":"3"},{"scity":"新北市","scityen":"New Taipei City","sna":"YouBike2.0_片仔溝公園","sarea":"八里區","ar":"中華路二段210號旁","snaen":"YouBike2.0_Pianzaigou Park","sareaen":"Bali Dist","aren":"No. 210, Sec. 2, Zhonghua Rd. (Side)","sno":"500201014","tot_quantity":"20","sbi_quantity":"4","mday":"20260118T084004","lat":"25.15020","lng":"121.40581","bemp":"16","act":"1","yb2_quantity":"3","eyb_quantity":"1"},{"scity":"新北市","scityen":"New Taipei City","sna":"YouBike2.0_八里福朋喜來登酒店","sarea":"八里區","ar":"觀海大道8號","snaen":"YouBike2.0_Four Points by Sheraton Taipei Bali","sareaen":"Bali Dist","aren":"No. 8, Guanhai Blvd.","sno":"500201015","tot_quantity":"30","sbi_quantity":"9","mday":"20260120T053003","lat":"25.15922","lng":"121.42945","bemp":"19","act":"1","yb2_quantity":"7","eyb_quantity":"2"},{"scity":"新北市","scityen":"New Taipei City","sna":"YouBike2.0_訊塘社區公園","sarea":"八里區","ar":"商港路/中山路二段口(東北側)","snaen":"YouBike2.0_Xuntang Community Park","sareaen":"Bali Dist","aren":"Shanggang Rd. & Sec. 2, Zhongshan Rd. (Northeast)","sno":"500201016","tot_quantity":"13","sbi_quantity":"4","mday":"20260119T134002","lat":"25.14550","lng":"121.39609","bemp":"9","act":"1","yb2_quantity":"4","eyb_quantity":"0"},{"scity":"新北市","scityen":"New Taipei City","sna":"YouBike2.0_商港公園(商港八商港一路口)","sarea":"八里區","ar":"商港八路/商港一路口","snaen":"YouBike2.0_Bali ShangGang Park (Shanggang 8th Rd. Intersection)","sareaen":"Bali Dist","aren":"Shanggang 8th Rd. & Shanggang 1st Rd. Intersection","sno":"500201017","tot_quantity":"15","sbi_quantity":"4","mday":"20260119T111002","lat":"25.15039","lng":"121.40026","bemp":"11","act":"1","yb2_quantity":"3","eyb_quantity":"1"},{"scity":"新北市","scityen":"New Taipei City","sna":"YouBike2.0_商港公園(商港七商港一路口)","sarea":"八里區","ar":"商港七路/商港一路口","snaen":"YouBike2.0_Bali ShangGang Park (Shanggang 7th Rd. Intersection)","sareaen":"Bali Dist","aren":"Shanggang 7th Rd. & Shanggang 1st Rd. Intersection","sno":"500201018","tot_quantity":"15","sbi_quantity":"5","mday":"20260119T075002","lat":"25.14916","lng":"121.39841","bemp":"10","act":"1","yb2_quantity":"4","eyb_quantity":"1"},{"scity":"新北市","scityen":"New Taipei City","sna":"YouBike2.0_渡船頭平面停車場","sarea":"八里區","ar":"渡船頭路/龍米路二段口(西北側)","snaen":"YouBike2.0_Duchuantou Parking Lot","sareaen":"Bali Dist","aren":"Duchuantou Rd. & Sec. 2, Longmi Rd. Intersection (Northwest)","sno":"500201019","tot_quantity":"33","sbi_quantity":"13","mday":"20260120T054803","lat":"25.15687","lng":"121.43527","bemp":"20","act":"1","yb2_quantity":"5","eyb_quantity":"8"},{"scity":"新北市","scityen":"New Taipei City","sna":"YouBike2.0_訊塘廣場(義民中華路口)","sarea":"八里區","ar":"義民街/中華路三段口","snaen":"YouBike2.0_XunTang Square (YiMin St. & ZhongHua Rd. Intersection)","sareaen":"Bali Dist","aren":"YiMin St. & Sec. 3, ZhongHua Rd. Intersection","sno":"500201020","tot_quantity":"21","sbi_quantity":"5","mday":"20260118T134003","lat":"25.14256","lng":"121.39564","bemp":"16","act":"1","yb2_quantity":"5","eyb_quantity":"0"},{"scity":"新北市","scityen":"New Taipei City","sna":"YouBike2.0_八里停五平面停車場","sarea":"八里區","ar":"賢三街/大崁二街口(西南側)","snaen":"YouBike2.0_BaLi 5th Car Park","sareaen":"Bali Dist","aren":"Xian 3rd St. & Dakan 2nd St. (Southwest)","sno":"500201021","tot_quantity":"30","sbi_quantity":"10","mday":"20260118T051802","lat":"25.15779","lng":"121.41758","bemp":"20","act":"1","yb2_quantity":"7","eyb_quantity":"3"},{"scity":"新北市","scityen":"New Taipei City","sna":"YouBike2.0_頂罟公園","sarea":"八里區","ar":"商港一路/商港九路(南側)","snaen":"YouBike2.0_DingGu Park","sareaen":"Bali Dist","aren":"ShangGang 1st Rd. & ShangGang 9th Rd. (South)","sno":"500201022","tot_quantity":"15","sbi_quantity":"6","mday":"20260118T194316","lat":"25.15330","lng":"121.40413","bemp":"9","act":"1","yb2_quantity":"6","eyb_quantity":"0"},{"scity":"新北市","scityen":"New Taipei City","sna":"YouBike2.0_狀元公園","sarea":"八里區","ar":"狀元路/文昌五街(西北側)","snaen":"YouBike2.0_ZhuangYuan Park","sareaen":"Bali Dist","aren":"ZhuangYuan Rd. & WenChang 5th St. (Northwest)","sno":"500201023","tot_quantity":"20","sbi_quantity":"4","mday":"20260119T035701","lat":"25.15450","lng":"121.41036","bemp":"14","act":"1","yb2_quantity":"4","eyb_quantity":"0"},{"scity":"新北市","scityen":"New Taipei City","sna":"YouBike2.0_商港三頂罟二路口","sarea":"八里區","ar":"商港三路101號(西北側)","snaen":"YouBike2.0_ShangGang 3rd Rd. & DingGu 2nd Rd. Intersection","sareaen":"Bali Dist","aren":"No. 101, ShangGang 3rd Rd. (Northwest)","sno":"500201024","tot_quantity":"25","sbi_quantity":"12","mday":"20260119T192002","lat":"25.15333","lng":"121.40168","bemp":"12","act":"1","yb2_quantity":"12","eyb_quantity":"0"},{"scity":"新北市","scityen":"New Taipei City","sna":"YouBike2.0_商港六商港三路口","sarea":"八里區","ar":"商港六路/商港三路(西北側)","snaen":"YouBike2.0_ShangGang 6th Rd. & ShangGang 3rd Rd. Intersection","sareaen":"Bali Dist","aren":"ShangGang 6th Rd. & ShangGang 3rd Rd. (Northwest)","sno":"500201025","tot_quantity":"15","sbi_quantity":"5","mday":"20260120T061801","lat":"25.14968","lng":"121.39589","bemp":"9","act":"1","yb2_quantity":"5","eyb_quantity":"0"},{"scity":"新北市","scityen":"New Taipei City","sna":"YouBike2.0_訊庄埔公園","sarea":"八里區","ar":"訊塘二路/添丁街(西北側)","snaen":"YouBike2.0_Xunzhuangpu Park","sareaen":"Bali Dist","aren":"XunTang 2nd Rd. & TianDing St. (Northwest)","sno":"500201026","tot_quantity":"15","sbi_quantity":"4","mday":"20260118T051802","lat":"25.14244","lng":"121.39222","bemp":"11","act":"1","yb2_quantity":"3","eyb_quantity":"1"},{"scity":"新北市","scityen":"New Taipei City","sna":"YouBike2.0_八里左岸自行車道(4.4K福德宮)","sarea":"八里區","ar":"龍米路二段86-9號(自行車道旁)","snaen":"YouBike2.0_Bali Left Bank Cycling Route (4.4K)","sareaen":"Bali Dist","aren":"No. 86-9, Sec. 2, LongMi Rd.","sno":"500201027","tot_quantity":"15","sbi_quantity":"12","mday":"20260119T142515","lat":"25.14315","lng":"121.44789","bemp":"1","act":"1","yb2_quantity":"12","eyb_quantity":"0"},{"scity":"新北市","scityen":"New Taipei City","sna":"YouBike2.0_中山賢一街口","sarea":"八里區","ar":"中山路一段25號","snaen":"YouBike2.0_ZhongShan Rd. & Xian 1st St. Intersection","sareaen":"Bali Dist","aren":"No. 25, Sec. 1, ZhongShan Rd.","sno":"500201028","tot_quantity":"17","sbi_quantity":"13","mday":"20260118T182615","lat":"25.15916","lng":"121.42144","bemp":"4","act":"1","yb2_quantity":"8","eyb_quantity":"5"},{"scity":"新北市","scityen":"New Taipei City","sna":"YouBike2.0_商港一十三行路口","sarea":"八里區","ar":"商港一路/十三行路口(南側)","snaen":"YouBike2.0_ShangGang 1st Rd. & ShiSanHang Rd. Intersection","sareaen":"Bali Dist","aren":"ShangGang 1st Rd. & ShiSanHang Rd. (South)","sno":"500201029","tot_quantity":"30","sbi_quantity":"7","mday":"20260120T025702","lat":"25.15483","lng":"121.40558","bemp":"23","act":"1","yb2_quantity":"5","eyb_quantity":"2"},{"scity":"新北市","scityen":"New Taipei City","sna":"YouBike2.0_淺水灣","sarea":"三芝區","ar":"北勢子42-11號西側","snaen":"YouBike2.0_Qianshui Bay","sareaen":"Sanzhi Dist","aren":"No. 42-11, Beishizi, Sanzhi Dist.(opposite)","sno":"500202001","tot_quantity":"48","sbi_quantity":"13","mday":"20260120T060215","lat":"25.25232","lng":"121.47131","bemp":"35","act":"1","yb2_quantity":"13","eyb_quantity":"0"},{"scity":"新北市","scityen":"New Taipei City","sna":"YouBike2.0_三芝國中","sarea":"三芝區","ar":"淡金路一段38號","snaen":"YouBike2.0_Sanzhi Junior High School","sareaen":"Sanzhi Dist","aren":"No. 38, Sec. 1, Danjin Rd.","sno":"500202002","tot_quantity":"14","sbi_quantity":"8","mday":"20260120T050402","lat":"25.25898","lng":"121.50182","bemp":"6","act":"1","yb2_quantity":"8","eyb_quantity":"0"},{"scity":"新北市","scityen":"New Taipei City","sna":"YouBike2.0_下庄市場","sarea":"八里區","ar":"舊城路21號(前)","snaen":"YouBike2.0_Shia Juang Market","sareaen":"Bali Dist","aren":"No.21, Jiucheng Rd., Bali Dist","sno":"500201001","tot_quantity":"20","sbi_quantity":"10","mday":"20260119T053201","lat":"25.14678","lng":"121.3999","bemp":"10","act":"1","yb2_quantity":"5","eyb_quantity":"5"},{"scity":"新北市","scityen":"New Taipei City","sna":"YouBike2.0_八里行政中心","sarea":"八里區","ar":"十三行路(靠中山路二段路口西南側人行道)","snaen":"YouBike2.0_Bali District Center","sareaen":"Bali Dist","aren":"Shisanhang Rd. & Zhongshan Rd. Intersection (Southwest)","sno":"500201002","tot_quantity":"20","sbi_quantity":"6","mday":"20260120T041802","lat":"25.15397","lng":"121.40721","bemp":"14","act":"1","yb2_quantity":"5","eyb_quantity":"1"},{"scity":"新北市","scityen":"New Taipei City","sna":"YouBike2.0_八里中庄市場綜合大樓","sarea":"八里區","ar":"中山路一段268巷2號(對面汽車停車場)","snaen":"YouBike2.0_Bali Chung Chuang Market Multi-Purpose Building","sareaen":"Bali Dist","aren":"No. 2, Ln. 268, Sec. 1, Zhongshan Rd., Bali Dist.","sno":"500201003","tot_quantity":"28","sbi_quantity":"4","mday":"20260120T042102","lat":"25.15993","lng":"121.41407","bemp":"24","act":"1","yb2_quantity":"4","eyb_quantity":"0"},{"scity":"新北市","scityen":"New Taipei City","sna":"YouBike2.0_大崁國小","sarea":"八里區","ar":"忠八街2號(前)","snaen":"YouBike2.0_DaKan Elementary School","sareaen":"Bali Dist","aren":"No. 2, Zhong 8th St., Bali Dist.","sno":"500201004","tot_quantity":"20","sbi_quantity":"7","mday":"20260120T050402","lat":"25.16064","lng":"121.41938","bemp":"13","act":"1","yb2_quantity":"6","eyb_quantity":"1"},{"scity":"新北市","scityen":"New Taipei City","sna":"YouBike2.0_龍形停車場","sarea":"八里區","ar":"龍米路一段318號(對面停車場)","snaen":"YouBike2.0_Long Xing Parking Tower","sareaen":"Bali Dist","aren":"No. 318, Sec 1, Longmi Rd.(Opposite)","sno":"500201006","tot_quantity":"40","sbi_quantity":"18","mday":"20260120T055902","lat":"25.13041","lng":"121.4513","bemp":"22","act":"1","yb2_quantity":"12","eyb_quantity":"6"},{"scity":"新北市","scityen":"New Taipei City","sna":"YouBike2.0_十三行博物館","sarea":"八里區","ar":"博物館路183號(對面)","snaen":"YouBike2.0_Shihsanhang Museum of Archaeology","sareaen":"Bali Dist","aren":"No. 183, Museum Rd., Bali Dist.(opposite)","sno":"500201007","tot_quantity":"46","sbi_quantity":"13","mday":"20260120T044902","lat":"25.157","lng":"121.406","bemp":"33","act":"1","yb2_quantity":"7","eyb_quantity":"6"},{"scity":"新北市","scityen":"New Taipei City","sna":"YouBike2.0_八里區民活動中心","sarea":"八里區","ar":"中山路二段356巷12號(旁)","snaen":"YouBike2.0_Bali Activity Center","sareaen":"Bali Dist","aren":"No. 12, Ln. 356, Sec. 2, Zhongshan Rd.","sno":"500201008","tot_quantity":"14","sbi_quantity":"4","mday":"20260120T043302","lat":"25.14933","lng":"121.40126","bemp":"10","act":"1","yb2_quantity":"3","eyb_quantity":"1"},{"scity":"新北市","scityen":"New Taipei City","sna":"YouBike2.0_挖仔尾自然生態保留區","sarea":"八里區","ar":"博物館路/挖仔尾街口(西側)","snaen":"YouBike2.0_Waziwei Ecological Reserves","sareaen":"Bali Dist","aren":"Museum Rd. & Waziwei St. Intersection(West)","sno":"500201009","tot_quantity":"15","sbi_quantity":"9","mday":"20260120T051402","lat":"25.16419","lng":"121.41586","bemp":"6","act":"1","yb2_quantity":"8","eyb_quantity":"1"},{"scity":"新北市","scityen":"New Taipei City","sna":"YouBike2.0_文昌公園","sarea":"八里區","ar":"中山路二段/文昌路(東側)","snaen":"YouBike2.0_Wenchang Park","sareaen":"Bali Dist","aren":"Sec. 2, Zhongshan Rd. & Wenchang Rd.(East)","sno":"500201010","tot_quantity":"15","sbi_quantity":"7","mday":"20260120T044003","lat":"25.15709","lng":"121.41033","bemp":"8","act":"1","yb2_quantity":"7","eyb_quantity":"0"},{"scity":"新北市","scityen":"New Taipei City","sna":"YouBike2.0_八里國小","sarea":"八里區","ar":"中山路二段251號(對面)","snaen":"YouBike2.0_Bali Elementary School","sareaen":"Bali Dist","aren":"No. 251, Sec. 2, Zhongshan Rd.(Opposite)","sno":"500201011","tot_quantity":"15","sbi_quantity":"3","mday":"20260120T085002","lat":"25.14896","lng":"121.4026","bemp":"12","act":"1","yb2_quantity":"0","eyb_quantity":"3"},{"scity":"新北市","scityen":"New Taipei City","sna":"YouBike2.0_八里文化公園(棒球場)","sarea":"八里區","ar":"忠孝路與挖仔街口(棒球場公園入口)","snaen":"YouBike2.0_Bali Wenhua Park","sareaen":"Bali Dist","aren":"Zhongxiao & Waziwei street entrance (baseball park)","sno":"500201012","tot_quantity":"60","sbi_quantity":"14","mday":"20260120T041802","lat":"25.16359","lng":"121.41251","bemp":"46","act":"1","yb2_quantity":"14","eyb_quantity":"0"},{"scity":"新北市","scityen":"New Taipei City","sna":"YouBike2.0_水興公","sarea":"八里區","ar":"觀海大道/忠四街(北側)","snaen":"YouBike2.0_Shuixinggong","sareaen":"Bali Dist","aren":"Guanhai Blvd. & Zhong 4th St. (North west)","sno":"500201013","tot_quantity":"15","sbi_quantity":"7","mday":"20260120T052702","lat":"25.16208","lng":"121.42509","bemp":"8","act":"1","yb2_quantity":"4","eyb_quantity":"3"},{"scity":"新北市","scityen":"New Taipei City","sna":"YouBike2.0_片仔溝公園","sarea":"八里區","ar":"中華路二段210號旁","snaen":"YouBike2.0_Pianzaigou Park","sareaen":"Bali Dist","aren":"No. 210, Sec. 2, Zhonghua Rd. (Side)","sno":"500201014","tot_quantity":"20","sbi_quantity":"4","mday":"20260118T084004","lat":"25.15020","lng":"121.40581","bemp":"16","act":"1","yb2_quantity":"3","eyb_quantity":"1"},{"scity":"新北市","scityen":"New Taipei City","sna":"YouBike2.0_八里福朋喜來登酒店","sarea":"八里區","ar":"觀海大道8號","snaen":"YouBike2.0_Four Points by Sheraton Taipei Bali","sareaen":"Bali Dist","aren":"No. 8, Guanhai Blvd.","sno":"500201015","tot_quantity":"30","sbi_quantity":"9","mday":"20260120T053003","lat":"25.15922","lng":"121.42945","bemp":"19","act":"1","yb2_quantity":"7","eyb_quantity":"2"},{"scity":"新北市","scityen":"New Taipei City","sna":"YouBike2.0_訊塘社區公園","sarea":"八里區","ar":"商港路/中山路二段口(東北側)","snaen":"YouBike2.0_Xuntang Community Park","sareaen":"Bali Dist","aren":"Shanggang Rd. & Sec. 2, Zhongshan Rd. (Northeast)","sno":"500201016","tot_quantity":"13","sbi_quantity":"4","mday":"20260119T134002","lat":"25.14550","lng":"121.39609","bemp":"9","act":"1","yb2_quantity":"4","eyb_quantity":"0"},{"scity":"新北市","scityen":"New Taipei City","sna":"YouBike2.0_商港公園(商港八商港一路口)","sarea":"八里區","ar":"商港八路/商港一路口","snaen":"YouBike2.0_Bali ShangGang Park (Shanggang 8th Rd. Intersection)","sareaen":"Bali Dist","aren":"Shanggang 8th Rd. & Shanggang 1st Rd. Intersection","sno":"500201017","tot_quantity":"15","sbi_quantity":"4","mday":"20260119T111002","lat":"25.15039","lng":"121.40026","bemp":"11","act":"1","yb2_quantity":"3","eyb_quantity":"1"},{"scity":"新北市","scityen":"New Taipei City","sna":"YouBike2.0_商港公園(商港七商港一路口)","sarea":"八里區","ar":"商港七路/商港一路口","snaen":"YouBike2.0_Bali ShangGang Park (Shanggang 7th Rd. Intersection)","sareaen":"Bali Dist","aren":"Shanggang 7th Rd. & Shanggang 1st Rd. Intersection","sno":"500201018","tot_quantity":"15","sbi_quantity":"5","mday":"20260119T075002","lat":"25.14916","lng":"121.39841","bemp":"10","act":"1","yb2_quantity":"4","eyb_quantity":"1"},{"scity":"新北市","scityen":"New Taipei City","sna":"YouBike2.0_渡船頭平面停車場","sarea":"八里區","ar":"渡船頭路/龍米路二段口(西北側)","snaen":"YouBike2.0_Duchuantou Parking Lot","sareaen":"Bali Dist","aren":"Duchuantou Rd. & Sec. 2, Longmi Rd. Intersection (Northwest)","sno":"500201019","tot_quantity":"33","sbi_quantity":"13","mday":"20260120T054803","lat":"25.15687","lng":"121.43527","bemp":"20","act":"1","yb2_quantity":"5","eyb_quantity":"8"},{"scity":"新北市","scityen":"New Taipei City","sna":"YouBike2.0_訊塘廣場(義民中華路口)","sarea":"八里區","ar":"義民街/中華路三段口","snaen":"YouBike2.0_XunTang Square (YiMin St. & ZhongHua Rd. Intersection)","sareaen":"Bali Dist","aren":"YiMin St. & Sec. 3, ZhongHua Rd. Intersection","sno":"500201020","tot_quantity":"21","sbi_quantity":"5","mday":"20260118T134003","lat":"25.14256","lng":"121.39564","bemp":"16","act":"1","yb2_quantity":"5","eyb_quantity":"0"},{"scity":"新北市","scityen":"New Taipei City","sna":"YouBike2.0_八里停五平面停車場","sarea":"八里區","ar":"賢三街/大崁二街口(西南側)","snaen":"YouBike2.0_BaLi 5th Car Park","sareaen":"Bali Dist","aren":"Xian 3rd St. & Dakan 2nd St. (Southwest)","sno":"500201021","tot_quantity":"30","sbi_quantity":"10","mday":"20260118T051802","lat":"25.15779","lng":"121.41758","bemp":"20","act":"1","yb2_quantity":"7","eyb_quantity":"3"},{"scity":"新北市","scityen":"New Taipei City","sna":"YouBike2.0_頂罟公園","sarea":"八里區","ar":"商港一路/商港九路(南側)","snaen":"YouBike2.0_DingGu Park","sareaen":"Bali Dist","aren":"ShangGang 1st Rd. & ShangGang 9th Rd. (South)","sno":"500201022","tot_quantity":"15","sbi_quantity":"6","mday":"20260118T194316","lat":"25.15330","lng":"121.40413","bemp":"9","act":"1","yb2_quantity":"6","eyb_quantity":"0"},{"scity":"新北市","scityen":"New Taipei City","sna":"YouBike2.0_狀元公園","sarea":"八里區","ar":"狀元路/文昌五街(西北側)","snaen":"YouBike2.0_ZhuangYuan Park","sareaen":"Bali Dist","aren":"ZhuangYuan Rd. & WenChang 5th St. (Northwest)","sno":"500201023","tot_quantity":"20","sbi_quantity":"4","mday":"20260119T035701","lat":"25.15450","lng":"121.41036","bemp":"14","act":"1","yb2_quantity":"4","eyb_quantity":"0"},{"scity":"新北市","scityen":"New Taipei City","sna":"YouBike2.0_商港三頂罟二路口","sarea":"八里區","ar":"商港三路101號(西北側)","snaen":"YouBike2.0_ShangGang 3rd Rd. & DingGu 2nd Rd. Intersection","sareaen":"Bali Dist","aren":"No. 101, ShangGang 3rd Rd. (Northwest)","sno":"500201024","tot_quantity":"25","sbi_quantity":"12","mday":"20260119T192002","lat":"25.15333","lng":"121.40168","bemp":"12","act":"1","yb2_quantity":"12","eyb_quantity":"0"},{"scity":"新北市","scityen":"New Taipei City","sna":"YouBike2.0_商港六商港三路口","sarea":"八里區","ar":"商港六路/商港三路(西北側)","snaen":"YouBike2.0_ShangGang 6th Rd. & ShangGang 3rd Rd. Intersection","sareaen":"Bali Dist","aren":"ShangGang 6th Rd. & ShangGang 3rd Rd. (Northwest)","sno":"500201025","tot_quantity":"15","sbi_quantity":"5","mday":"20260120T061801","lat":"25.14968","lng":"121.39589","bemp":"9","act":"1","yb2_quantity":"5","eyb_quantity":"0"},{"scity":"新北市","scityen":"New Taipei City","sna":"YouBike2.0_訊庄埔公園","sarea":"八里區","ar":"訊塘二路/添丁街(西北側)","snaen":"YouBike2.0_Xunzhuangpu Park","sareaen":"Bali Dist","aren":"XunTang 2nd Rd. & TianDing St. (Northwest)","sno":"500201026","tot_quantity":"15","sbi_quantity":"4","mday":"20260118T051802","lat":"25.14244","lng":"121.39222","bemp":"11","act":"1","yb2_quantity":"3","eyb_quantity":"1"},{"scity":"新北市","scityen":"New Taipei City","sna":"YouBike2.0_八里左岸自行車道(4.4K福德宮)","sarea":"八里區","ar":"龍米路二段86-9號(自行車道旁)","snaen":"YouBike2.0_Bali Left Bank Cycling Route (4.4K)","sareaen":"Bali Dist","aren":"No. 86-9, Sec. 2, LongMi Rd.","sno":"500201027","tot_quantity":"15","sbi_quantity":"12","mday":"20260119T142515","lat":"25.14315","lng":"121.44789","bemp":"1","act":"1","yb2_quantity":"12","eyb_quantity":"0"},{"scity":"新北市","scityen":"New Taipei City","sna":"YouBike2.0_中山賢一街口","sarea":"八里區","ar":"中山路一段25號","snaen":"YouBike2.0_ZhongShan Rd. & Xian 1st St. Intersection","sareaen":"Bali Dist","aren":"No. 25, Sec. 1, ZhongShan Rd.","sno":"500201028","tot_quantity":"17","sbi_quantity":"13","mday":"20260118T182615","lat":"25.15916","lng":"121.42144","bemp":"4","act":"1","yb2_quantity":"8","eyb_quantity":"5"},{"scity":"新北市","scityen":"New Taipei City","sna":"YouBike2.0_商港一十三行路口","sarea":"八里區","ar":"商港一路/十三行路口(南側)","snaen":"YouBike2.0_ShangGang 1st Rd. & ShiSanHang Rd. Intersection","sareaen":"Bali Dist","aren":"ShangGang 1st Rd. & ShiSanHang Rd. (South)","sno":"500201029","tot_quantity":"30","sbi_quantity":"7","mday":"20260120T025702","lat":"25.15483","lng":"121.40558","bemp":"23","act":"1","yb2_quantity":"5","eyb_quantity":"2"},{"scity":"新北市","scityen":"New Taipei City","sna":"YouBike2.0_淺水灣","sarea":"三芝區","ar":"北勢子42-11號西側","snaen":"YouBike2.0_Qianshui Bay","sareaen":"Sanzhi Dist","aren":"No. 42-11, Beishizi, Sanzhi Dist.(opposite)","sno":"500202001","tot_quantity":"48","sbi_quantity":"13","mday":"20260120T060215","lat":"25.25232","lng":"121.47131","bemp":"35","act":"1","yb2_quantity":"13","eyb_quantity":"0"},{"scity":"新北市","scityen":"New Taipei City","sna":"YouBike2.0_三芝國中","sarea":"三芝區","ar":"淡金路一段38號","snaen":"YouBike2.0_Sanzhi Junior High School","sareaen":"Sanzhi Dist","aren":"No. 38, Sec. 1, Danjin Rd.","sno":"500202002","tot_quantity":"14","sbi_quantity":"8","mday":"20260120T050402","lat":"25.25898","lng":"121.50182","bemp":"6","act":"1","yb2_quantity":"8","eyb_quantity":"0"},{"scity":"新北市","scityen":"New Taipei City","sna":"YouBike2.0_下庄市場","sarea":"八里區","ar":"舊城路21號(前)","snaen":"YouBike2.0_Shia Juang Market","sareaen":"Bali Dist","aren":"No.21, Jiucheng Rd., Bali Dist","sno":"500201001","tot_quantity":"20","sbi_quantity":"10","mday":"20260119T053201","lat":"25.14678","lng":"121.3999","bemp":"10","act":"1","yb2_quantity":"5","eyb_quantity":"5"},{"scity":"新北市","scityen":"New Taipei City","sna":"YouBike2.0_八里行政中心","sarea":"八里區","ar":"十三行路(靠中山路二段路口西南側人行道)","snaen":"YouBike2.0_Bali District Center","sareaen":"Bali Dist","aren":"Shisanhang Rd. & Zhongshan Rd. Intersection (Southwest)","sno":"500201002","tot_quantity":"20","sbi_quantity":"6","mday":"20260120T041802","lat":"25.15397","lng":"121.40721","bemp":"14","act":"1","yb2_quantity":"5","eyb_quantity":"1"},{"scity":"新北市","scityen":"New Taipei City","sna":"YouBike2.0_八里中庄市場綜合大樓","sarea":"八里區","ar":"中山路一段268巷2號(對面汽車停車場)","snaen":"YouBike2.0_Bali Chung Chuang Market Multi-Purpose Building","sareaen":"Bali Dist","aren":"No. 2, Ln. 268, Sec. 1, Zhongshan Rd., Bali Dist.","sno":"500201003","tot_quantity":"28","sbi_quantity":"4","mday":"20260120T042102","lat":"25.15993","lng":"121.41407","bemp":"24","act":"1","yb2_quantity":"4","eyb_quantity":"0"},{"scity":"新北市","scityen":"New Taipei City","sna":"YouBike2.0_大崁國小","sarea":"八里區","ar":"忠八街2號(前)","snaen":"YouBike2.0_DaKan Elementary School","sareaen":"Bali Dist","aren":"No. 2, Zhong 8th St., Bali Dist.","sno":"500201004","tot_quantity":"20","sbi_quantity":"7","mday":"20260120T050402","lat":"25.16064","lng":"121.41938","bemp":"13","act":"1","yb2_quantity":"6","eyb_quantity":"1"},{"scity":"新北市","scityen":"New Taipei City","sna":"YouBike2.0_龍形停車場","sarea":"八里區","ar":"龍米路一段318號(對面停車場)","snaen":"YouBike2.0_Long Xing Parking Tower","sareaen":"Bali Dist","aren":"No. 318, Sec 1, Longmi Rd.(Opposite)","sno":"500201006","tot_quantity":"40","sbi_quantity":"18","mday":"20260120T055902","lat":"25.13041","lng":"121.4513","bemp":"22","act":"1","yb2_quantity":"12","eyb_quantity":"6"},{"scity":"新北市","scityen":"New Taipei City","sna":"YouBike2.0_十三行博物館","sarea":"八里區","ar":"博物館路183號(對面)","snaen":"YouBike2.0_Shihsanhang Museum of Archaeology","sareaen":"Bali Dist","aren":"No. 183, Museum Rd., Bali Dist.(opposite)","sno":"500201007","tot_quantity":"46","sbi_quantity":"13","mday":"20260120T044902","lat":"25.157","lng":"121.406","bemp":"33","act":"1","yb2_quantity":"7","eyb_quantity":"6"},{"scity":"新北市","scityen":"New Taipei City","sna":"YouBike2.0_八里區民活動中心","sarea":"八里區","ar":"中山路二段356巷12號(旁)","snaen":"YouBike2.0_Bali Activity Center","sareaen":"Bali Dist","aren":"No. 12, Ln. 356, Sec. 2, Zhongshan Rd.","sno":"500201008","tot_quantity":"14","sbi_quantity":"4","mday":"20260120T043302","lat":"25.14933","lng":"121.40126","bemp":"10","act":"1","yb2_quantity":"3","eyb_quantity":"1"},{"scity":"新北市","scityen":"New Taipei City","sna":"YouBike2.0_挖仔尾自然生態保留區","sarea":"八里區","ar":"博物館路/挖仔尾街口(西側)","snaen":"YouBike2.0_Waziwei Ecological Reserves","sareaen":"Bali Dist","aren":"Museum Rd. & Waziwei St. Intersection(West)","sno":"500201009","tot_quantity":"15","sbi_quantity":"9","mday":"20260120T051402","lat":"25.16419","lng":"121.41586","bemp":"6","act":"1","yb2_quantity":"8","eyb_quantity":"1"},{"scity":"新北市","scityen":"New Taipei City","sna":"YouBike2.0_文昌公園","sarea":"八里區","ar":"中山路二段/文昌路(東側)","snaen":"YouBike2.0_Wenchang Park","sareaen":"Bali Dist","aren":"Sec. 2, Zhongshan Rd. & Wenchang Rd.(East)","sno":"500201010","tot_quantity":"15","sbi_quantity":"7","mday":"20260120T044003","lat":"25.15709","lng":"121.41033","bemp":"8","act":"1","yb2_quantity":"7","eyb_quantity":"0"},{"scity":"新北市","scityen":"New Taipei City","sna":"YouBike2.0_八里國小","sarea":"八里區","ar":"中山路二段251號(對面)","snaen":"YouBike2.0_Bali Elementary School","sareaen":"Bali Dist","aren":"No. 251, Sec. 2, Zhongshan Rd.(Opposite)","sno":"500201011","tot_quantity":"15","sbi_quantity":"3","mday":"20260120T085002","lat":"25.14896","lng":"121.4026","bemp":"12","act":"1","yb2_quantity":"0","eyb_quantity":"3"},{"scity":"新北市","scityen":"New Taipei City","sna":"YouBike2.0_八里文化公園(棒球場)","sarea":"八里區","ar":"忠孝路與挖仔街口(棒球場公園入口)","snaen":"YouBike2.0_Bali Wenhua Park","sareaen":"Bali Dist","aren":"Zhongxiao & Waziwei street entrance (baseball park)","sno":"500201012","tot_quantity":"60","sbi_quantity":"14","mday":"20260120T041802","lat":"25.16359","lng":"121.41251","bemp":"46","act":"1","yb2_quantity":"14","eyb_quantity":"0"},{"scity":"新北市","scityen":"New Taipei City","sna":"YouBike2.0_水興公","sarea":"八里區","ar":"觀海大道/忠四街(北側)","snaen":"YouBike2.0_Shuixinggong","sareaen":"Bali Dist","aren":"Guanhai Blvd. & Zhong 4th St. (North west)","sno":"500201013","tot_quantity":"15","sbi_quantity":"7","mday":"20260120T052702","lat":"25.16208","lng":"121.42509","bemp":"8","act":"1","yb2_quantity":"4","eyb_quantity":"3"},{"scity":"新北市","scityen":"New Taipei City","sna":"YouBike2.0_片仔溝公園","sarea":"八里區","ar":"中華路二段210號旁","snaen":"YouBike2.0_Pianzaigou Park","sareaen":"Bali Dist","aren":"No. 210, Sec. 2, Zhonghua Rd. (Side)","sno":"500201014","tot_quantity":"20","sbi_quantity":"4","mday":"20260118T084004","lat":"25.15020","lng":"121.40581","bemp":"16","act":"1","yb2_quantity":"3","eyb_quantity":"1"},{"scity":"新北市","scityen":"New Taipei City","sna":"YouBike2.0_八里福朋喜來登酒店","sarea":"八里區","ar":"觀海大道8號","snaen":"YouBike2.0_Four Points by Sheraton Taipei Bali","sareaen":"Bali Dist","aren":"No. 8, Guanhai Blvd.","sno":"500201015","tot_quantity":"30","sbi_quantity":"9","mday":"20260120T053003","lat":"25.15922","lng":"121.42945","bemp":"19","act":"1","yb2_quantity":"7","eyb_quantity":"2"},{"scity":"新北市","scityen":"New Taipei City","sna":"YouBike2.0_訊塘社區公園","sarea":"八里區","ar":"商港路/中山路二段口(東北側)","snaen":"YouBike2.0_Xuntang Community Park","sareaen":"Bali Dist","aren":"Shanggang Rd. & Sec. 2, Zhongshan Rd. (Northeast)","sno":"500201016","tot_quantity":"13","sbi_quantity":"4","mday":"20260119T134002","lat":"25.14550","lng":"121.39609","bemp":"9","act":"1","yb2_quantity":"4","eyb_quantity":"0"},{"scity":"新北市","scityen":"New Taipei City","sna":"YouBike2.0_商港公園(商港八商港一路口)","sarea":"八里區","ar":"商港八路/商港一路口","snaen":"YouBike2.0_Bali ShangGang Park (Shanggang 8th Rd. Intersection)","sareaen":"Bali Dist","aren":"Shanggang 8th Rd. & Shanggang 1st Rd. Intersection","sno":"500201017","tot_quantity":"15","sbi_quantity":"4","mday":"20260119T111002","lat":"25.15039","lng":"121.40026","bemp":"11","act":"1","yb2_quantity":"3","eyb_quantity":"1"},{"scity":"新北市","scityen":"New Taipei City","sna":"YouBike2.0_商港公園(商港七商港一路口)","sarea":"八里區","ar":"商港七路/商港一路口","snaen":"YouBike2.0_Bali ShangGang Park (Shanggang 7th Rd. Intersection)","sareaen":"Bali Dist","aren":"Shanggang 7th Rd. & Shanggang 1st Rd. Intersection","sno":"500201018","tot_quantity":"15","sbi_quantity":"5","mday":"20260119T075002","lat":"25.14916","lng":"121.39841","bemp":"10","act":"1","yb2_quantity":"4","eyb_quantity":"1"},{"scity":"新北市","scityen":"New Taipei City","sna":"YouBike2.0_渡船頭平面停車場","sarea":"八里區","ar":"渡船頭路/龍米路二段口(西北側)","snaen":"YouBike2.0_Duchuantou Parking Lot","sareaen":"Bali Dist","aren":"Duchuantou Rd. & Sec. 2, Longmi Rd. Intersection (Northwest)","sno":"500201019","tot_quantity":"33","sbi_quantity":"13","mday":"20260120T054803","lat":"25.15687","lng":"121.43527","bemp":"20","act":"1","yb2_quantity":"5","eyb_quantity":"8"},{"scity":"新北市","scityen":"New Taipei City","sna":"YouBike2.0_訊塘廣場(義民中華路口)","sarea":"八里區","ar":"義民街/中華路三段口","snaen":"YouBike2.0_XunTang Square (YiMin St. & ZhongHua Rd. Intersection)","sareaen":"Bali Dist","aren":"YiMin St. & Sec. 3, ZhongHua Rd. Intersection","sno":"500201020","tot_quantity":"21","sbi_quantity":"5","mday":"20260118T134003","lat":"25.14256","lng":"121.39564","bemp":"16","act":"1","yb2_quantity":"5","eyb_quantity":"0"},{"scity":"新北市","scityen":"New Taipei City","sna":"YouBike2.0_八里停五平面停車場","sarea":"八里區","ar":"賢三街/大崁二街口(西南側)","snaen":"YouBike2.0_BaLi 5th Car Park","sareaen":"Bali Dist","aren":"Xian 3rd St. & Dakan 2nd St. (Southwest)","sno":"500201021","tot_quantity":"30","sbi_quantity":"10","mday":"20260118T051802","lat":"25.15779","lng":"121.41758","bemp":"20","act":"1","yb2_quantity":"7","eyb_quantity":"3"},{"scity":"新北市","scityen":"New Taipei City","sna":"YouBike2.0_頂罟公園","sarea":"八里區","ar":"商港一路/商港九路(南側)","snaen":"YouBike2.0_DingGu Park","sareaen":"Bali Dist","aren":"ShangGang 1st Rd. & ShangGang 9th Rd. (South)","sno":"500201022","tot_quantity":"15","sbi_quantity":"6","mday":"20260118T194316","lat":"25.15330","lng":"121.40413","bemp":"9","act":"1","yb2_quantity":"6","eyb_quantity":"0"},{"scity":"新北市","scityen":"New Taipei City","sna":"YouBike2.0_狀元公園","sarea":"八里區","ar":"狀元路/文昌五街(西北側)","snaen":"YouBike2.0_ZhuangYuan Park","sareaen":"Bali Dist","aren":"ZhuangYuan Rd. & WenChang 5th St. (Northwest)","sno":"500201023","tot_quantity":"20","sbi_quantity":"4","mday":"20260119T035701","lat":"25.15450","lng":"121.41036","bemp":"14","act":"1","yb2_quantity":"4","eyb_quantity":"0"},{"scity":"新北市","scityen":"New Taipei City","sna":"YouBike2.0_商港三頂罟二路口","sarea":"八里區","ar":"商港三路101號(西北側)","snaen":"YouBike2.0_ShangGang 3rd Rd. & DingGu 2nd Rd. Intersection","sareaen":"Bali Dist","aren":"No. 101, ShangGang 3rd Rd. (Northwest)","sno":"500201024","tot_quantity":"25","sbi_quantity":"12","mday":"20260119T192002","lat":"25.15333","lng":"121.40168","bemp":"12","act":"1","yb2_quantity":"12","eyb_quantity":"0"},{"scity":"新北市","scityen":"New Taipei City","sna":"YouBike2.0_商港六商港三路口","sarea":"八里區","ar":"商港六路/商港三路(西北側)","snaen":"YouBike2.0_ShangGang 6th Rd. & ShangGang 3rd Rd. Intersection","sareaen":"Bali Dist","aren":"ShangGang 6th Rd. & ShangGang 3rd Rd. (Northwest)","sno":"500201025","tot_quantity":"15","sbi_quantity":"5","mday":"20260120T061801","lat":"25.14968","lng":"121.39589","bemp":"9","act":"1","yb2_quantity":"5","eyb_quantity":"0"},{"scity":"新北市","scityen":"New Taipei City","sna":"YouBike2.0_訊庄埔公園","sarea":"八里區","ar":"訊塘二路/添丁街(西北側)","snaen":"YouBike2.0_Xunzhuangpu Park","sareaen":"Bali Dist","aren":"XunTang 2nd Rd. & TianDing St. (Northwest)","sno":"500201026","tot_quantity":"15","sbi_quantity":"4","mday":"20260118T051802","lat":"25.14244","lng":"121.39222","bemp":"11","act":"1","yb2_quantity":"3","eyb_quantity":"1"},{"scity":"新北市","scityen":"New Taipei City","sna":"YouBike2.0_八里左岸自行車道(4.4K福德宮)","sarea":"八里區","ar":"龍米路二段86-9號(自行車道旁)","snaen":"YouBike2.0_Bali Left Bank Cycling Route (4.4K)","sareaen":"Bali Dist","aren":"No. 86-9, Sec. 2, LongMi Rd.","sno":"500201027","tot_quantity":"15","sbi_quantity":"12","mday":"20260119T142515","lat":"25.14315","lng":"121.44789","bemp":"1","act":"1","yb2_quantity":"12","eyb_quantity":"0"},{"scity":"新北市","scityen":"New Taipei City","sna":"YouBike2.0_中山賢一街口","sarea":"八里區","ar":"中山路一段25號","snaen":"YouBike2.0_ZhongShan Rd. & Xian 1st St. Intersection","sareaen":"Bali Dist","aren":"No. 25, Sec. 1, ZhongShan Rd.","sno":"500201028","tot_quantity":"17","sbi_quantity":"13","mday":"20260118T182615","lat":"25.15916","lng":"121.42144","bemp":"4","act":"1","yb2_quantity":"8","eyb_quantity":"5"},{"scity":"新北市","scityen":"New Taipei City","sna":"YouBike2.0_商港一十三行路口","sarea":"八里區","ar":"商港一路/十三行路口(南側)","snaen":"YouBike2.0_ShangGang 1st Rd. & ShiSanHang Rd. Intersection","sareaen":"Bali Dist","aren":"ShangGang 1st Rd. & ShiSanHang Rd. (South)","sno":"500201029","tot_quantity":"30","sbi_quantity":"7","mday":"20260120T025702","lat":"25.15483","lng":"121.40558","bemp":"23","act":"1","yb2_quantity":"5","eyb_quantity":"2"},{"scity":"新北市","scityen":"New Taipei City","sna":"YouBike2.0_淺水灣","sarea":"三芝區","ar":"北勢子42-11號西側","snaen":"YouBike2.0_Qianshui Bay","sareaen":"Sanzhi Dist","aren":"No. 42-11, Beishizi, Sanzhi Dist.(opposite)","sno":"500202001","tot_quantity":"48","sbi_quantity":"13","mday":"20260120T060215","lat":"25.25232","lng":"121.47131","bemp":"35","act":"1","yb2_quantity":"13","eyb_quantity":"0"},{"scity":"新北市","scityen":"New Taipei City","sna":"YouBike2.0_三芝國中","sarea":"三芝區","ar":"淡金路一段38號","snaen":"YouBike2.0_Sanzhi Junior High School","sareaen":"Sanzhi Dist","aren":"No. 38, Sec. 1, Danjin Rd.","sno":"500202002","tot_quantity":"14","sbi_quantity":"8","mday":"20260120T050402","lat":"25.25898","lng":"121.50182","bemp":"6","act":"1","yb2_quantity":"8","eyb_quantity":"0"},{"scity":"新北市","scityen":"New Taipei City","sna":"YouBike2.0_下庄市場","sarea":"八里區","ar":"舊城路21號(前)","snaen":"YouBike2.0_Shia Juang Market","sareaen":"Bali Dist","aren":"No.21, Jiucheng Rd., Bali Dist","sno":"500201001","tot_quantity":"20","sbi_quantity":"10","mday":"20260119T053201","lat":"25.14678","lng":"121.3999","bemp":"10","act":"1","yb2_quantity":"5","eyb_quantity":"5"},{"scity":"新北市","scityen":"New Taipei City","sna":"YouBike2.0_八里行政中心","sarea":"八里區","ar":"十三行路(靠中山路二段路口西南側人行道)","snaen":"YouBike2.0_Bali District Center","sareaen":"Bali Dist","aren":"Shisanhang Rd. & Zhongshan Rd. Intersection (Southwest)","sno":"500201002","tot_quantity":"20","sbi_quantity":"6","mday":"20260120T041802","lat":"25.15397","lng":"121.40721","bemp":"14","act":"1","yb2_quantity":"5","eyb_quantity":"1"},{"scity":"新北市","scityen":"New Taipei City","sna":"YouBike2.0_八里中庄市場綜合大樓","sarea":"八里區","ar":"中山路一段268巷2號(對面汽車停車場)","snaen":"YouBike2.0_Bali Chung Chuang Market Multi-Purpose Building","sareaen":"Bali Dist","aren":"No. 2, Ln. 268, Sec. 1, Zhongshan Rd., Bali Dist.","sno":"500201003","tot_quantity":"28","sbi_quantity":"4","mday":"20260120T042102","lat":"25.15993","lng":"121.41407","bemp":"24","act":"1","yb2_quantity":"4","eyb_quantity":"0"},{"scity":"新北市","scityen":"New Taipei City","sna":"YouBike2.0_大崁國小","sarea":"八里區","ar":"忠八街2號(前)","snaen":"YouBike2.0_DaKan Elementary School","sareaen":"Bali Dist","aren":"No. 2, Zhong 8th St., Bali Dist.","sno":"500201004","tot_quantity":"20","sbi_quantity":"7","mday":"20260120T050402","lat":"25.16064","lng":"121.41938","bemp":"13","act":"1","yb2_quantity":"6","eyb_quantity":"1"},{"scity":"新北市","scityen":"New Taipei City","sna":"YouBike2.0_龍形停車場","sarea":"八里區","ar":"龍米路一段318號(對面停車場)","snaen":"YouBike2.0_Long Xing Parking Tower","sareaen":"Bali Dist","aren":"No. 318, Sec 1, Longmi Rd.(Opposite)","sno":"500201006","tot_quantity":"40","sbi_quantity":"18","mday":"20260120T055902","lat":"25.13041","lng":"121.4513","bemp":"22","act":"1","yb2_quantity":"12","eyb_quantity":"6"},{"scity":"新北市","scityen":"New Taipei City","sna":"YouBike2.0_十三行博物館","sarea":"八里區","ar":"博物館路183號(對面)","snaen":"YouBike2.0_Shihsanhang Museum of Archaeology","sareaen":"Bali Dist","aren":"No. 183, Museum Rd., Bali Dist.(opposite)","sno":"500201007","tot_quantity":"46","sbi_quantity":"13","mday":"20260120T044902","lat":"25.157","lng":"121.406","bemp":"33","act":"1","yb2_quantity":"7","eyb_quantity":"6"},{"scity":"新北市","scityen":"New Taipei City","sna":"YouBike2.0_八里區民活動中心","sarea":"八里區","ar":"中山路二段356巷12號(旁)","snaen":"YouBike2.0_Bali Activity Center","sareaen":"Bali Dist","aren":"No. 12, Ln. 356, Sec. 2, Zhongshan Rd.","sno":"500201008","tot_quantity":"14","sbi_quantity":"4","mday":"20260120T043302","lat":"25.14933","lng":"121.40126","bemp":"10","act":"1","yb2_quantity":"3","eyb_quantity":"1"},{"scity":"新北市","scityen":"New Taipei City","sna":"YouBike2.0_挖仔尾自然生態保留區","sarea":"八里區","ar":"博物館路/挖仔尾街口(西側)","snaen":"YouBike2.0_Waziwei Ecological Reserves","sareaen":"Bali Dist","aren":"Museum Rd. & Waziwei St. Intersection(West)","sno":"500201009","tot_quantity":"15","sbi_quantity":"9","mday":"20260120T051402","lat":"25.16419","lng":"121.41586","bemp":"6","act":"1","yb2_quantity":"8","eyb_quantity":"1"},{"scity":"新北市","scityen":"New Taipei City","sna":"YouBike2.0_文昌公園","sarea":"八里區","ar":"中山路二段/文昌路(東側)","snaen":"YouBike2.0_Wenchang Park","sareaen":"Bali Dist","aren":"Sec. 2, Zhongshan Rd. & Wenchang Rd.(East)","sno":"500201010","tot_quantity":"15","sbi_quantity":"7","mday":"20260120T044003","lat":"25.15709","lng":"121.41033","bemp":"8","act":"1","yb2_quantity":"7","eyb_quantity":"0"},{"scity":"新北市","scityen":"New Taipei City","sna":"YouBike2.0_八里國小","sarea":"八里區","ar":"中山路二段251號(對面)","snaen":"YouBike2.0_Bali Elementary School","sareaen":"Bali Dist","aren":"No. 251, Sec. 2, Zhongshan Rd.(Opposite)","sno":"500201011","tot_quantity":"15","sbi_quantity":"3","mday":"20260120T085002","lat":"25.14896","lng":"121.4026","bemp":"12","act":"1","yb2_quantity":"0","eyb_quantity":"3"},{"scity":"新北市","scityen":"New Taipei City","sna":"YouBike2.0_八里文化公園(棒球場)","sarea":"八里區","ar":"忠孝路與挖仔街口(棒球場公園入口)","snaen":"YouBike2.0_Bali Wenhua Park","sareaen":"Bali Dist","aren":"Zhongxiao & Waziwei street entrance (baseball park)","sno":"500201012","tot_quantity":"60","sbi_quantity":"14","mday":"20260120T041802","lat":"25.16359","lng":"121.41251","bemp":"46","act":"1","yb2_quantity":"14","eyb_quantity":"0"},{"scity":"新北市","scityen":"New Taipei City","sna":"YouBike2.0_水興公","sarea":"八里區","ar":"觀海大道/忠四街(北側)","snaen":"YouBike2.0_Shuixinggong","sareaen":"Bali Dist","aren":"Guanhai Blvd. & Zhong 4th St. (North west)","sno":"500201013","tot_quantity":"15","sbi_quantity":"7","mday":"20260120T052702","lat":"25.16208","lng":"121.42509","bemp":"8","act":"1","yb2_quantity":"4","eyb_quantity":"3"},{"scity":"新北市","scityen":"New Taipei City","sna":"YouBike2.0_片仔溝公園","sarea":"八里區","ar":"中華路二段210號旁","snaen":"YouBike2.0_Pianzaigou Park","sareaen":"Bali Dist","aren":"No. 210, Sec. 2, Zhonghua Rd. (Side)","sno":"500201014","tot_quantity":"20","sbi_quantity":"4","mday":"20260118T084004","lat":"25.15020","lng":"121.40581","bemp":"16","act":"1","yb2_quantity":"3","eyb_quantity":"1"},{"scity":"新北市","scityen":"New Taipei City","sna":"YouBike2.0_八里福朋喜來登酒店","sarea":"八里區","ar":"觀海大道8號","snaen":"YouBike2.0_Four Points by Sheraton Taipei Bali","sareaen":"Bali Dist","aren":"No. 8, Guanhai Blvd.","sno":"500201015","tot_quantity":"30","sbi_quantity":"9","mday":"20260120T053003","lat":"25.15922","lng":"121.42945","bemp":"19","act":"1","yb2_quantity":"7","eyb_quantity":"2"},{"scity":"新北市","scityen":"New Taipei City","sna":"YouBike2.0_訊塘社區公園","sarea":"八里區","ar":"商港路/中山路二段口(東北側)","snaen":"YouBike2.0_Xuntang Community Park","sareaen":"Bali Dist","aren":"Shanggang Rd. & Sec. 2, Zhongshan Rd. (Northeast)","sno":"500201016","tot_quantity":"13","sbi_quantity":"4","mday":"20260119T134002","lat":"25.14550","lng":"121.39609","bemp":"9","act":"1","yb2_quantity":"4","eyb_quantity":"0"},{"scity":"新北市","scityen":"New Taipei City","sna":"YouBike2.0_商港公園(商港八商港一路口)","sarea":"八里區","ar":"商港八路/商港一路口","snaen":"YouBike2.0_Bali ShangGang Park (Shanggang 8th Rd. Intersection)","sareaen":"Bali Dist","aren":"Shanggang 8th Rd. & Shanggang 1st Rd. Intersection","sno":"500201017","tot_quantity":"15","sbi_quantity":"4","mday":"20260119T111002","lat":"25.15039","lng":"121.40026","bemp":"11","act":"1","yb2_quantity":"3","eyb_quantity":"1"},{"scity":"新北市","scityen":"New Taipei City","sna":"YouBike2.0_商港公園(商港七商港一路口)","sarea":"八里區","ar":"商港七路/商港一路口","snaen":"YouBike2.0_Bali ShangGang Park (Shanggang 7th Rd. Intersection)","sareaen":"Bali Dist","aren":"Shanggang 7th Rd. & Shanggang 1st Rd. Intersection","sno":"500201018","tot_quantity":"15","sbi_quantity":"5","mday":"20260119T075002","lat":"25.14916","lng":"121.39841","bemp":"10","act":"1","yb2_quantity":"4","eyb_quantity":"1"},{"scity":"新北市","scityen":"New Taipei City","sna":"YouBike2.0_渡船頭平面停車場","sarea":"八里區","ar":"渡船頭路/龍米路二段口(西北側)","snaen":"YouBike2.0_Duchuantou Parking Lot","sareaen":"Bali Dist","aren":"Duchuantou Rd. & Sec. 2, Longmi Rd. Intersection (Northwest)","sno":"500201019","tot_quantity":"33","sbi_quantity":"13","mday":"20260120T054803","lat":"25.15687","lng":"121.43527","bemp":"20","act":"1","yb2_quantity":"5","eyb_quantity":"8"},{"scity":"新北市","scityen":"New Taipei City","sna":"YouBike2.0_訊塘廣場(義民中華路口)","sarea":"八里區","ar":"義民街/中華路三段口","snaen":"YouBike2.0_XunTang Square (YiMin St. & ZhongHua Rd. Intersection)","sareaen":"Bali Dist","aren":"YiMin St. & Sec. 3, ZhongHua Rd. Intersection","sno":"500201020","tot_quantity":"21","sbi_quantity":"5","mday":"20260118T134003","lat":"25.14256","lng":"121.39564","bemp":"16","act":"1","yb2_quantity":"5","eyb_quantity":"0"},{"scity":"新北市","scityen":"New Taipei City","sna":"YouBike2.0_八里停五平面停車場","sarea":"八里區","ar":"賢三街/大崁二街口(西南側)","snaen":"YouBike2.0_BaLi 5th Car Park","sareaen":"Bali Dist","aren":"Xian 3rd St. & Dakan 2nd St. (Southwest)","sno":"500201021","tot_quantity":"30","sbi_quantity":"10","mday":"20260118T051802","lat":"25.15779","lng":"121.41758","bemp":"20","act":"1","yb2_quantity":"7","eyb_quantity":"3"},{"scity":"新北市","scityen":"New Taipei City","sna":"YouBike2.0_頂罟公園","sarea":"八里區","ar":"商港一路/商港九路(南側)","snaen":"YouBike2.0_DingGu Park","sareaen":"Bali Dist","aren":"ShangGang 1st Rd. & ShangGang 9th Rd. (South)","sno":"500201022","tot_quantity":"15","sbi_quantity":"6","mday":"20260118T194316","lat":"25.15330","lng":"121.40413","bemp":"9","act":"1","yb2_quantity":"6","eyb_quantity":"0"},{"scity":"新北市","scityen":"New Taipei City","sna":"YouBike2.0_狀元公園","sarea":"八里區","ar":"狀元路/文昌五街(西北側)","snaen":"YouBike2.0_ZhuangYuan Park","sareaen":"Bali Dist","aren":"ZhuangYuan Rd. & WenChang 5th St. (Northwest)","sno":"500201023","tot_quantity":"20","sbi_quantity":"4","mday":"20260119T035701","lat":"25.15450","lng":"121.41036","bemp":"14","act":"1","yb2_quantity":"4","eyb_quantity":"0"},{"scity":"新北市","scityen":"New Taipei City","sna":"YouBike2.0_商港三頂罟二路口","sarea":"八里區","ar":"商港三路101號(西北側)","snaen":"YouBike2.0_ShangGang 3rd Rd. & DingGu 2nd Rd. Intersection","sareaen":"Bali Dist","aren":"No. 101, ShangGang 3rd Rd. (Northwest)","sno":"500201024","tot_quantity":"25","sbi_quantity":"12","mday":"20260119T192002","lat":"25.15333","lng":"121.40168","bemp":"12","act":"1","yb2_quantity":"12","eyb_quantity":"0"},{"scity":"新北市","scityen":"New Taipei City","sna":"YouBike2.0_商港六商港三路口","sarea":"八里區","ar":"商港六路/商港三路(西北側)","snaen":"YouBike2.0_ShangGang 6th Rd. & ShangGang 3rd Rd. Intersection","sareaen":"Bali Dist","aren":"ShangGang 6th Rd. & ShangGang 3rd Rd. (Northwest)","sno":"500201025","tot_quantity":"15","sbi_quantity":"5","mday":"20260120T061801","lat":"25.14968","lng":"121.39589","bemp":"9","act":"1","yb2_quantity":"5","eyb_quantity":"0"},{"scity":"新北市","scityen":"New Taipei City","sna":"YouBike2.0_訊庄埔公園","sarea":"八里區","ar":"訊塘二路/添丁街(西北側)","snaen":"YouBike2.0_Xunzhuangpu Park","sareaen":"Bali Dist","aren":"XunTang 2nd Rd. & TianDing St. (Northwest)","sno":"500201026","tot_quantity":"15","sbi_quantity":"4","mday":"20260118T051802","lat":"25.14244","lng":"121.39222","bemp":"11","act":"1","yb2_quantity":"3","eyb_quantity":"1"},{"scity":"新北市","scityen":"New Taipei City","sna":"YouBike2.0_八里左岸自行車道(4.4K福德宮)","sarea":"八里區","ar":"龍米路二段86-9號(自行車道旁)","snaen":"YouBike2.0_Bali Left Bank Cycling Route (4.4K)","sareaen":"Bali Dist","aren":"No. 86-9, Sec. 2, LongMi Rd.","sno":"500201027","tot_quantity":"15","sbi_quantity":"12","mday":"20260119T142515","lat":"25.14315","lng":"121.44789","bemp":"1","act":"1","yb2_quantity":"12","eyb_quantity":"0"},{"scity":"新北市","scityen":"New Taipei City","sna":"YouBike2.0_中山賢一街口","sarea":"八里區","ar":"中山路一段25號","snaen":"YouBike2.0_ZhongShan Rd. & Xian 1st St. Intersection","sareaen":"Bali Dist","aren":"No. 25, Sec. 1, ZhongShan Rd.","sno":"500201028","tot_quantity":"17","sbi_quantity":"13","mday":"20260118T182615","lat":"25.15916","lng":"121.42144","bemp":"4","act":"1","yb2_quantity":"8","eyb_quantity":"5"},{"scity":"新北市","scityen":"New Taipei City","sna":"YouBike2.0_商港一十三行路口","sarea":"八里區","ar":"商港一路/十三行路口(南側)","snaen":"YouBike2.0_ShangGang 1st Rd. & ShiSanHang Rd. Intersection","sareaen":"Bali Dist","aren":"ShangGang 1st Rd. & ShiSanHang Rd. (South)","sno":"500201029","tot_quantity":"30","sbi_quantity":"7","mday":"20260120T025702","lat":"25.15483","lng":"121.40558","bemp":"23","act":"1","yb2_quantity":"5","eyb_quantity":"2"},{"scity":"新北市","scityen":"New Taipei City","sna":"YouBike2.0_淺水灣","sarea":"三芝區","ar":"北勢子42-11號西側","snaen":"YouBike2.0_Qianshui Bay","sareaen":"Sanzhi Dist","aren":"No. 42-11, Beishizi, Sanzhi Dist.(opposite)","sno":"500202001","tot_quantity":"48","sbi_quantity":"13","mday":"20260120T060215","lat":"25.25232","lng":"121.47131","bemp":"35","act":"1","yb2_quantity":"13","eyb_quantity":"0"},{"scity":"新北市","scityen":"New Taipei City","sna":"YouBike2.0_三芝國中","sarea":"三芝區","ar":"淡金路一段38號","snaen":"YouBike2.0_Sanzhi Junior High School","sareaen":"Sanzhi Dist","aren":"No. 38, Sec. 1, Danjin Rd.","sno":"500202002","tot_quantity":"14","sbi_quantity":"8","mday":"20260120T050402","lat":"25.25898","lng":"121.50182","bemp":"6","act":"1","yb2_quantity":"8","eyb_quantity":"0"},{"scity":"新北市","scityen":"New Taipei City","sna":"YouBike2.0_下庄市場","sarea":"八里區","ar":"舊城路21號(前)","snaen":"YouBike2.0_Shia Juang Market","sareaen":"Bali Dist","aren":"No.21, Jiucheng Rd., Bali Dist","sno":"500201001","tot_quantity":"20","sbi_quantity":"10","mday":"20260119T053201","lat":"25.14678","lng":"121.3999","bemp":"10","act":"1","yb2_quantity":"5","eyb_quantity":"5"},{"scity":"新北市","scityen":"New Taipei City","sna":"YouBike2.0_八里行政中心","sarea":"八里區","ar":"十三行路(靠中山路二段路口西南側人行道)","snaen":"YouBike2.0_Bali District Center","sareaen":"Bali Dist","aren":"Shisanhang Rd. & Zhongshan Rd. Intersection (Southwest)","sno":"500201002","tot_quantity":"20","sbi_quantity":"6","mday":"20260120T041802","lat":"25.15397","lng":"121.40721","bemp":"14","act":"1","yb2_quantity":"5","eyb_quantity":"1"},{"scity":"新北市","scityen":"New Taipei City","sna":"YouBike2.0_八里中庄市場綜合大樓","sarea":"八里區","ar":"中山路一段268巷2號(對面汽車停車場)","snaen":"YouBike2.0_Bali Chung Chuang Market Multi-Purpose Building","sareaen":"Bali Dist","aren":"No. 2, Ln. 268, Sec. 1, Zhongshan Rd., Bali Dist.","sno":"500201003","tot_quantity":"28","sbi_quantity":"4","mday":"20260120T042102","lat":"25.15993","lng":"121.41407","bemp":"24","act":"1","yb2_quantity":"4","eyb_quantity":"0"},{"scity":"新北市","scityen":"New Taipei City","sna":"YouBike2.0_大崁國小","sarea":"八里區","ar":"忠八街2號(前)","snaen":"YouBike2.0_DaKan Elementary School","sareaen":"Bali Dist","aren":"No. 2, Zhong 8th St., Bali Dist.","sno":"500201004","tot_quantity":"20","sbi_quantity":"7","mday":"20260120T050402","lat":"25.16064","lng":"121.41938","bemp":"13","act":"1","yb2_quantity":"6","eyb_quantity":"1"},{"scity":"新北市","scityen":"New Taipei City","sna":"YouBike2.0_龍形停車場","sarea":"八里區","ar":"龍米路一段318號(對面停車場)","snaen":"YouBike2.0_Long Xing Parking Tower","sareaen":"Bali Dist","aren":"No. 318, Sec 1, Longmi Rd.(Opposite)","sno":"500201006","tot_quantity":"40","sbi_quantity":"18","mday":"20260120T055902","lat":"25.13041","lng":"121.4513","bemp":"22","act":"1","yb2_quantity":"12","eyb_quantity":"6"},{"scity":"新北市","scityen":"New Taipei City","sna":"YouBike2.0_十三行博物館","sarea":"八里區","ar":"博物館路183號(對面)","snaen":"YouBike2.0_Shihsanhang Museum of Archaeology","sareaen":"Bali Dist","aren":"No. 183, Museum Rd., Bali Dist.(opposite)","sno":"500201007","tot_quantity":"46","sbi_quantity":"13","mday":"20260120T044902","lat":"25.157","lng":"121.406","bemp":"33","act":"1","yb2_quantity":"7","eyb_quantity":"6"},{"scity":"新北市","scityen":"New Taipei City","sna":"YouBike2.0_八里區民活動中心","sarea":"八里區","ar":"中山路二段356巷12號(旁)","snaen":"YouBike2.0_Bali Activity Center","sareaen":"Bali Dist","aren":"No. 12, Ln. 356, Sec. 2, Zhongshan Rd.","sno":"500201008","tot_quantity":"14","sbi_quantity":"4","mday":"20260120T043302","lat":"25.14933","lng":"121.40126","bemp":"10","act":"1","yb2_quantity":"3","eyb_quantity":"1"},{"scity":"新北市","scityen":"New Taipei City","sna":"YouBike2.0_挖仔尾自然生態保留區","sarea":"八里區","ar":"博物館路/挖仔尾街口(西側)","snaen":"YouBike2.0_Waziwei Ecological Reserves","sareaen":"Bali Dist","aren":"Museum Rd. & Waziwei St. Intersection(West)","sno":"500201009","tot_quantity":"15","sbi_quantity":"9","mday":"20260120T051402","lat":"25.16419","lng":"121.41586","bemp":"6","act":"1","yb2_quantity":"8","eyb_quantity":"1"},{"scity":"新北市","scityen":"New Taipei City","sna":"YouBike2.0_文昌公園","sarea":"八里區","ar":"中山路二段/文昌路(東側)","snaen":"YouBike2.0_Wenchang Park","sareaen":"Bali Dist","aren":"Sec. 2, Zhongshan Rd. & Wenchang Rd.(East)","sno":"500201010","tot_quantity":"15","sbi_quantity":"7","mday":"20260120T044003","lat":"25.15709","lng":"121.41033","bemp":"8","act":"1","yb2_quantity":"7","eyb_quantity":"0"},{"scity":"新北市","scityen":"New Taipei City","sna":"YouBike2.0_八里國小","sarea":"八里區","ar":"中山路二段251號(對面)","snaen":"YouBike2.0_Bali Elementary School","sareaen":"Bali Dist","aren":"No. 251, Sec. 2, Zhongshan Rd.(Opposite)","sno":"500201011","tot_quantity":"15","sbi_quantity":"3","mday":"20260120T085002","lat":"25.14896","lng":"121.4026","bemp":"12","act":"1","yb2_quantity":"0","eyb_quantity":"3"},{"scity":"新北市","scityen":"New Taipei City","sna":"YouBike2.0_八里文化公園(棒球場)","sarea":"八里區","ar":"忠孝路與挖仔街口(棒球場公園入口)","snaen":"YouBike2.0_Bali Wenhua Park","sareaen":"Bali Dist","aren":"Zhongxiao & Waziwei street entrance (baseball park)","sno":"500201012","tot_quantity":"60","sbi_quantity":"14","mday":"20260120T041802","lat":"25.16359","lng":"121.41251","bemp":"46","act":"1","yb2_quantity":"14","eyb_quantity":"0"},{"scity":"新北市","scityen":"New Taipei City","sna":"YouBike2.0_水興公","sarea":"八里區","ar":"觀海大道/忠四街(北側)","snaen":"YouBike2.0_Shuixinggong","sareaen":"Bali Dist","aren":"Guanhai Blvd. & Zhong 4th St. (North west)","sno":"500201013","tot_quantity":"15","sbi_quantity":"7","mday":"20260120T052702","lat":"25.16208","lng":"121.42509","bemp":"8","act":"1","yb2_quantity":"4","eyb_quantity":"3"},{"scity":"新北市","scityen":"New Taipei City","sna":"YouBike2.0_片仔溝公園","sarea":"八里區","ar":"中華路二段210號旁","snaen":"YouBike2.0_Pianzaigou Park","sareaen":"Bali Dist","aren":"No. 210, Sec. 2, Zhonghua Rd. (Side)","sno":"500201014","tot_quantity":"20","sbi_quantity":"4","mday":"20260118T084004","lat":"25.15020","lng":"121.40581","bemp":"16","act":"1","yb2_quantity":"3","eyb_quantity":"1"},{"scity":"新北市","scityen":"New Taipei City","sna":"YouBike2.0_八里福朋喜來登酒店","sarea":"八里區","ar":"觀海大道8號","snaen":"YouBike2.0_Four Points by Sheraton Taipei Bali","sareaen":"Bali Dist","aren":"No. 8, Guanhai Blvd.","sno":"500201015","tot_quantity":"30","sbi_quantity":"9","mday":"20260120T053003","lat":"25.15922","lng":"121.42945","bemp":"19","act":"1","yb2_quantity":"7","eyb_quantity":"2"},{"scity":"新北市","scityen":"New Taipei City","sna":"YouBike2.0_訊塘社區公園","sarea":"八里區","ar":"商港路/中山路二段口(東北側)","snaen":"YouBike2.0_Xuntang Community Park","sareaen":"Bali Dist","aren":"Shanggang Rd. & Sec. 2, Zhongshan Rd. (Northeast)","sno":"500201016","tot_quantity":"13","sbi_quantity":"4","mday":"20260119T134002","lat":"25.14550","lng":"121.39609","bemp":"9","act":"1","yb2_quantity":"4","eyb_quantity":"0"},{"scity":"新北市","scityen":"New Taipei City","sna":"YouBike2.0_商港公園(商港八商港一路口)","sarea":"八里區","ar":"商港八路/商港一路口","snaen":"YouBike2.0_Bali ShangGang Park (Shanggang 8th Rd. Intersection)","sareaen":"Bali Dist","aren":"Shanggang 8th Rd. & Shanggang 1st Rd. Intersection","sno":"500201017","tot_quantity":"15","sbi_quantity":"4","mday":"20260119T111002","lat":"25.15039","lng":"121.40026","bemp":"11","act":"1","yb2_quantity":"3","eyb_quantity":"1"},{"scity":"新北市","scityen":"New Taipei City","sna":"YouBike2.0_商港公園(商港七商港一路口)","sarea":"八里區","ar":"商港七路/商港一路口","snaen":"YouBike2.0_Bali ShangGang Park (Shanggang 7th Rd. Intersection)","sareaen":"Bali Dist","aren":"Shanggang 7th Rd. & Shanggang 1st Rd. Intersection","sno":"500201018","tot_quantity":"15","sbi_quantity":"5","mday":"20260119T075002","lat":"25.14916","lng":"121.39841","bemp":"10","act":"1","yb2_quantity":"4","eyb_quantity":"1"},{"scity":"新北市","scityen":"New Taipei City","sna":"YouBike2.0_渡船頭平面停車場","sarea":"八里區","ar":"渡船頭路/龍米路二段口(西北側)","snaen":"YouBike2.0_Duchuantou Parking Lot","sareaen":"Bali Dist","aren":"Duchuantou Rd. & Sec. 2, Longmi Rd. Intersection (Northwest)","sno":"500201019","tot_quantity":"33","sbi_quantity":"13","mday":"20260120T054803","lat":"25.15687","lng":"121.43527","bemp":"20","act":"1","yb2_quantity":"5","eyb_quantity":"8"},{"scity":"新北市","scityen":"New Taipei City","sna":"YouBike2.0_訊塘廣場(義民中華路口)","sarea":"八里區","ar":"義民街/中華路三段口","snaen":"YouBike2.0_XunTang Square (YiMin St. & ZhongHua Rd. Intersection)","sareaen":"Bali Dist","aren":"YiMin St. & Sec. 3, ZhongHua Rd. Intersection","sno":"500201020","tot_quantity":"21","sbi_quantity":"5","mday":"20260118T134003","lat":"25.14256","lng":"121.39564","bemp":"16","act":"1","yb2_quantity":"5","eyb_quantity":"0"},{"scity":"新北市","scityen":"New Taipei City","sna":"YouBike2.0_八里停五平面停車場","sarea":"八里區","ar":"賢三街/大崁二街口(西南側)","snaen":"YouBike2.0_BaLi 5th Car Park","sareaen":"Bali Dist","aren":"Xian 3rd St. & Dakan 2nd St. (Southwest)","sno":"500201021","tot_quantity":"30","sbi_quantity":"10","mday":"20260118T051802","lat":"25.15779","lng":"121.41758","bemp":"20","act":"1","yb2_quantity":"7","eyb_quantity":"3"},{"scity":"新北市","scityen":"New Taipei City","sna":"YouBike2.0_頂罟公園","sarea":"八里區","ar":"商港一路/商港九路(南側)","snaen":"YouBike2.0_DingGu Park","sareaen":"Bali Dist","aren":"ShangGang 1st Rd. & ShangGang 9th Rd. (South)","sno":"500201022","tot_quantity":"15","sbi_quantity":"6","mday":"20260118T194316","lat":"25.15330","lng":"121.40413","bemp":"9","act":"1","yb2_quantity":"6","eyb_quantity":"0"},{"scity":"新北市","scityen":"New Taipei City","sna":"YouBike2.0_狀元公園","sarea":"八里區","ar":"狀元路/文昌五街(西北側)","snaen":"YouBike2.0_ZhuangYuan Park","sareaen":"Bali Dist","aren":"ZhuangYuan Rd. & WenChang 5th St. (Northwest)","sno":"500201023","tot_quantity":"20","sbi_quantity":"4","mday":"20260119T035701","lat":"25.15450","lng":"121.41036","bemp":"14","act":"1","yb2_quantity":"4","eyb_quantity":"0"},{"scity":"新北市","scityen":"New Taipei City","sna":"YouBike2.0_商港三頂罟二路口","sarea":"八里區","ar":"商港三路101號(西北側)","snaen":"YouBike2.0_ShangGang 3rd Rd. & DingGu 2nd Rd. Intersection","sareaen":"Bali Dist","aren":"No. 101, ShangGang 3rd Rd. (Northwest)","sno":"500201024","tot_quantity":"25","sbi_quantity":"12","mday":"20260119T192002","lat":"25.15333","lng":"121.40168","bemp":"12","act":"1","yb2_quantity":"12","eyb_quantity":"0"},{"scity":"新北市","scityen":"New Taipei City","sna":"YouBike2.0_商港六商港三路口","sarea":"八里區","ar":"商港六路/商港三路(西北側)","snaen":"YouBike2.0_ShangGang 6th Rd. & ShangGang 3rd Rd. Intersection","sareaen":"Bali Dist","aren":"ShangGang 6th Rd. & ShangGang 3rd Rd. (Northwest)","sno":"500201025","tot_quantity":"15","sbi_quantity":"5","mday":"20260120T061801","lat":"25.14968","lng":"121.39589","bemp":"9","act":"1","yb2_quantity":"5","eyb_quantity":"0"},{"scity":"新北市","scityen":"New Taipei City","sna":"YouBike2.0_訊庄埔公園","sarea":"八里區","ar":"訊塘二路/添丁街(西北側)","snaen":"YouBike2.0_Xunzhuangpu Park","sareaen":"Bali Dist","aren":"XunTang 2nd Rd. & TianDing St. (Northwest)","sno":"500201026","tot_quantity":"15","sbi_quantity":"4","mday":"20260118T051802","lat":"25.14244","lng":"121.39222","bemp":"11","act":"1","yb2_quantity":"3","eyb_quantity":"1"},{"scity":"新北市","scityen":"New Taipei City","sna":"YouBike2.0_八里左岸自行車道(4.4K福德宮)","sarea":"八里區","ar":"龍米路二段86-9號(自行車道旁)","snaen":"YouBike2.0_Bali Left Bank Cycling Route (4.4K)","sareaen":"Bali Dist","aren":"No. 86-9, Sec. 2, LongMi Rd.","sno":"500201027","tot_quantity":"15","sbi_quantity":"12","mday":"20260119T142515","lat":"25.14315","lng":"121.44789","bemp":"1","act":"1","yb2_quantity":"12","eyb_quantity":"0"},{"scity":"新北市","scityen":"New Taipei City","sna":"YouBike2.0_中山賢一街口","sarea":"八里區","ar":"中山路一段25號","snaen":"YouBike2.0_ZhongShan Rd. & Xian 1st St. Intersection","sareaen":"Bali Dist","aren":"No. 25, Sec. 1, ZhongShan Rd.","sno":"500201028","tot_quantity":"17","sbi_quantity":"13","mday":"20260118T182615","lat":"25.15916","lng":"121.42144","bemp":"4","act":"1","yb2_quantity":"8","eyb_quantity":"5"},{"scity":"新北市","scityen":"New Taipei City","sna":"YouBike2.0_商港一十三行路口","sarea":"八里區","ar":"商港一路/十三行路口(南側)","snaen":"YouBike2.0_ShangGang 1st Rd. & ShiSanHang Rd. Intersection","sareaen":"Bali Dist","aren":"ShangGang 1st Rd. & ShiSanHang Rd. (South)","sno":"500201029","tot_quantity":"30","sbi_quantity":"7","mday":"20260120T025702","lat":"25.15483","lng":"121.40558","bemp":"23","act":"1","yb2_quantity":"5","eyb_quantity":"2"},{"scity":"新北市","scityen":"New Taipei City","sna":"YouBike2.0_淺水灣","sarea":"三芝區","ar":"北勢子42-11號西側","snaen":"YouBike2.0_Qianshui Bay","sareaen":"Sanzhi Dist","aren":"No. 42-11, Beishizi, Sanzhi Dist.(opposite)","sno":"500202001","tot_quantity":"48","sbi_quantity":"13","mday":"20260120T060215","lat":"25.25232","lng":"121.47131","bemp":"35","act":"1","yb2_quantity":"13","eyb_quantity":"0"},{"scity":"新北市","scityen":"New Taipei City","sna":"YouBike2.0_三芝國中","sarea":"三芝區","ar":"淡金路一段38號","snaen":"YouBike2.0_Sanzhi Junior High School","sareaen":"Sanzhi Dist","aren":"No. 38, Sec. 1, Danjin Rd.","sno":"500202002","tot_quantity":"14","sbi_quantity":"8","mday":"20260120T050402","lat":"25.25898","lng":"121.50182","bemp":"6","act":"1","yb2_quantity":"8","eyb_quantity":"0"},{"scity":"新北市","scityen":"New Taipei City","sna":"YouBike2.0_下庄市場","sarea":"八里區","ar":"舊城路21號(前)","snaen":"YouBike2.0_Shia Juang Market","sareaen":"Bali Dist","aren":"No.21, Jiucheng Rd., Bali Dist","sno":"500201001","tot_quantity":"20","sbi_quantity":"10","mday":"20260119T053201","lat":"25.14678","lng":"121.3999","bemp":"10","act":"1","yb2_quantity":"5","eyb_quantity":"5"},{"scity":"新北市","scityen":"New Taipei City","sna":"YouBike2.0_八里行政中心","sarea":"八里區","ar":"十三行路(靠中山路二段路口西南側人行道)","snaen":"YouBike2.0_Bali District Center","sareaen":"Bali Dist","aren":"Shisanhang Rd. & Zhongshan Rd. Intersection (Southwest)","sno":"500201002","tot_quantity":"20","sbi_quantity":"6","mday":"20260120T041802","lat":"25.15397","lng":"121.40721","bemp":"14","act":"1","yb2_quantity":"5","eyb_quantity":"1"},{"scity":"新北市","scityen":"New Taipei City","sna":"YouBike2.0_八里中庄市場綜合大樓","sarea":"八里區","ar":"中山路一段268巷2號(對面汽車停車場)","snaen":"YouBike2.0_Bali Chung Chuang Market Multi-Purpose Building","sareaen":"Bali Dist","aren":"No. 2, Ln. 268, Sec. 1, Zhongshan Rd., Bali Dist.","sno":"500201003","tot_quantity":"28","sbi_quantity":"4","mday":"20260120T042102","lat":"25.15993","lng":"121.41407","bemp":"24","act":"1","yb2_quantity":"4","eyb_quantity":"0"},{"scity":"新北市","scityen":"New Taipei City","sna":"YouBike2.0_大崁國小","sarea":"八里區","ar":"忠八街2號(前)","snaen":"YouBike2.0_DaKan Elementary School","sareaen":"Bali Dist","aren":"No. 2, Zhong 8th St., Bali Dist.","sno":"500201004","tot_quantity":"20","sbi_quantity":"7","mday":"20260120T050402","lat":"25.16064","lng":"121.41938","bemp":"13","act":"1","yb2_quantity":"6","eyb_quantity":"1"},{"scity":"新北市","scityen":"New Taipei City","sna":"YouBike2.0_龍形停車場","sarea":"八里區","ar":"龍米路一段318號(對面停車場)","snaen":"YouBike2.0_Long Xing Parking Tower","sareaen":"Bali Dist","aren":"No. 318, Sec 1, Longmi Rd.(Opposite)","sno":"500201006","tot_quantity":"40","sbi_quantity":"18","mday":"20260120T055902","lat":"25.13041","lng":"121.4513","bemp":"22","act":"1","yb2_quantity":"12","eyb_quantity":"6"},{"scity":"新北市","scityen":"New Taipei City","sna":"YouBike2.0_十三行博物館","sarea":"八里區","ar":"博物館路183號(對面)","snaen":"YouBike2.0_Shihsanhang Museum of Archaeology","sareaen":"Bali Dist","aren":"No. 183, Museum Rd., Bali Dist.(opposite)","sno":"500201007","tot_quantity":"46","sbi_quantity":"13","mday":"20260120T044902","lat":"25.157","lng":"121.406","bemp":"33","act":"1","yb2_quantity":"7","eyb_quantity":"6"},{"scity":"新北市","scityen":"New Taipei City","sna":"YouBike2.0_八里區民活動中心","sarea":"八里區","ar":"中山路二段356巷12號(旁)","snaen":"YouBike2.0_Bali Activity Center","sareaen":"Bali Dist","aren":"No. 12, Ln. 356, Sec. 2, Zhongshan Rd.","sno":"500201008","tot_quantity":"14","sbi_quantity":"4","mday":"20260120T043302","lat":"25.14933","lng":"121.40126","bemp":"10","act":"1","yb2_quantity":"3","eyb_quantity":"1"},{"scity":"新北市","scityen":"New Taipei City","sna":"YouBike2.0_挖仔尾自然生態保留區","sarea":"八里區","ar":"博物館路/挖仔尾街口(西側)","snaen":"YouBike2.0_Waziwei Ecological Reserves","sareaen":"Bali Dist","aren":"Museum Rd. & Waziwei St. Intersection(West)","sno":"500201009","tot_quantity":"15","sbi_quantity":"9","mday":"20260120T051402","lat":"25.16419","lng":"121.41586","bemp":"6","act":"1","yb2_quantity":"8","eyb_quantity":"1"},{"scity":"新北市","scityen":"New Taipei City","sna":"YouBike2.0_文昌公園","sarea":"八里區","ar":"中山路二段/文昌路(東側)","snaen":"YouBike2.0_Wenchang Park","sareaen":"Bali Dist","aren":"Sec. 2, Zhongshan Rd. & Wenchang Rd.(East)","sno":"500201010","tot_quantity":"15","sbi_quantity":"7","mday":"20260120T044003","lat":"25.15709","lng":"121.41033","bemp":"8","act":"1","yb2_quantity":"7","eyb_quantity":"0"},{"scity":"新北市","scityen":"New Taipei City","sna":"YouBike2.0_八里國小","sarea":"八里區","ar":"中山路二段251號(對面)","snaen":"YouBike2.0_Bali Elementary School","sareaen":"Bali Dist","aren":"No. 251, Sec. 2, Zhongshan Rd.(Opposite)","sno":"500201011","tot_quantity":"15","sbi_quantity":"3","mday":"20260120T085002","lat":"25.14896","lng":"121.4026","bemp":"12","act":"1","yb2_quantity":"0","eyb_quantity":"3"},{"scity":"新北市","scityen":"New Taipei City","sna":"YouBike2.0_八里文化公園(棒球場)","sarea":"八里區","ar":"忠孝路與挖仔街口(棒球場公園入口)","snaen":"YouBike2.0_Bali Wenhua Park","sareaen":"Bali Dist","aren":"Zhongxiao & Waziwei street entrance (baseball park)","sno":"500201012","tot_quantity":"60","sbi_quantity":"14","mday":"20260120T041802","lat":"25.16359","lng":"121.41251","bemp":"46","act":"1","yb2_quantity":"14","eyb_quantity":"0"},{"scity":"新北市","scityen":"New Taipei City","sna":"YouBike2.0_水興公","sarea":"八里區","ar":"觀海大道/忠四街(北側)","snaen":"YouBike2.0_Shuixinggong","sareaen":"Bali Dist","aren":"Guanhai Blvd. & Zhong 4th St. (North west)","sno":"500201013","tot_quantity":"15","sbi_quantity":"7","mday":"20260120T052702","lat":"25.16208","lng":"121.42509","bemp":"8","act":"1","yb2_quantity":"4","eyb_quantity":"3"},{"scity":"新北市","scityen":"New Taipei City","sna":"YouBike2.0_片仔溝公園","sarea":"八里區","ar":"中華路二段210號旁","snaen":"YouBike2.0_Pianzaigou Park","sareaen":"Bali Dist","aren":"No. 210, Sec. 2, Zhonghua Rd. (Side)","sno":"500201014","tot_quantity":"20","sbi_quantity":"4","mday":"20260118T084004","lat":"25.15020","lng":"121.40581","bemp":"16","act":"1","yb2_quantity":"3","eyb_quantity":"1"},{"scity":"新北市","scityen":"New Taipei City","sna":"YouBike2.0_八里福朋喜來登酒店","sarea":"八里區","ar":"觀海大道8號","snaen":"YouBike2.0_Four Points by Sheraton Taipei Bali","sareaen":"Bali Dist","aren":"No. 8, Guanhai Blvd.","sno":"500201015","tot_quantity":"30","sbi_quantity":"9","mday":"20260120T053003","lat":"25.15922","lng":"121.42945","bemp":"19","act":"1","yb2_quantity":"7","eyb_quantity":"2"},{"scity":"新北市","scityen":"New Taipei City","sna":"YouBike2.0_訊塘社區公園","sarea":"八里區","ar":"商港路/中山路二段口(東北側)","snaen":"YouBike2.0_Xuntang Community Park","sareaen":"Bali Dist","aren":"Shanggang Rd. & Sec. 2, Zhongshan Rd. (Northeast)","sno":"500201016","tot_quantity":"13","sbi_quantity":"4","mday":"20260119T134002","lat":"25.14550","lng":"121.39609","bemp":"9","act":"1","yb2_quantity":"4","eyb_quantity":"0"},{"scity":"新北市","scityen":"New Taipei City","sna":"YouBike2.0_商港公園(商港八商港一路口)","sarea":"八里區","ar":"商港八路/商港一路口","snaen":"YouBike2.0_Bali ShangGang Park (Shanggang 8th Rd. Intersection)","sareaen":"Bali Dist","aren":"Shanggang 8th Rd. & Shanggang 1st Rd. Intersection","sno":"500201017","tot_quantity":"15","sbi_quantity":"4","mday":"20260119T111002","lat":"25.15039","lng":"121.40026","bemp":"11","act":"1","yb2_quantity":"3","eyb_quantity":"1"},{"scity":"新北市","scityen":"New Taipei City","sna":"YouBike2.0_商港公園(商港七商港一路口)","sarea":"八里區","ar":"商港七路/商港一路口","snaen":"YouBike2.0_Bali ShangGang Park (Shanggang 7th Rd. Intersection)","sareaen":"Bali Dist","aren":"Shanggang 7th Rd. & Shanggang 1st Rd. Intersection","sno":"500201018","tot_quantity":"15","sbi_quantity":"5","mday":"20260119T075002","lat":"25.14916","lng":"121.39841","bemp":"10","act":"1","yb2_quantity":"4","eyb_quantity":"1"},{"scity":"新北市","scityen":"New Taipei City","sna":"YouBike2.0_渡船頭平面停車場","sarea":"八里區","ar":"渡船頭路/龍米路二段口(西北側)","snaen":"YouBike2.0_Duchuantou Parking Lot","sareaen":"Bali Dist","aren":"Duchuantou Rd. & Sec. 2, Longmi Rd. Intersection (Northwest)","sno":"500201019","tot_quantity":"33","sbi_quantity":"13","mday":"20260120T054803","lat":"25.15687","lng":"121.43527","bemp":"20","act":"1","yb2_quantity":"5","eyb_quantity":"8"},{"scity":"新北市","scityen":"New Taipei City","sna":"YouBike2.0_訊塘廣場(義民中華路口)","sarea":"八里區","ar":"義民街/中華路三段口","snaen":"YouBike2.0_XunTang Square (YiMin St. & ZhongHua Rd. Intersection)","sareaen":"Bali Dist","aren":"YiMin St. & Sec. 3, ZhongHua Rd. Intersection","sno":"500201020","tot_quantity":"21","sbi_quantity":"5","mday":"20260118T134003","lat":"25.14256","lng":"121.39564","bemp":"16","act":"1","yb2_quantity":"5","eyb_quantity":"0"},{"scity":"新北市","scityen":"New Taipei City","sna":"YouBike2.0_八里停五平面停車場","sarea":"八里區","ar":"賢三街/大崁二街口(西南側)","snaen":"YouBike2.0_BaLi 5th Car Park","sareaen":"Bali Dist","aren":"Xian 3rd St. & Dakan 2nd St. (Southwest)","sno":"500201021","tot_quantity":"30","sbi_quantity":"10","mday":"20260118T051802","lat":"25.15779","lng":"121.41758","bemp":"20","act":"1","yb2_quantity":"7","eyb_quantity":"3"},{"scity":"新北市","scityen":"New Taipei City","sna":"YouBike2.0_頂罟公園","sarea":"八里區","ar":"商港一路/商港九路(南側)","snaen":"YouBike2.0_DingGu Park","sareaen":"Bali Dist","aren":"ShangGang 1st Rd. & ShangGang 9th Rd. (South)","sno":"500201022","tot_quantity":"15","sbi_quantity":"6","mday":"20260118T194316","lat":"25.15330","lng":"121.40413","bemp":"9","act":"1","yb2_quantity":"6","eyb_quantity":"0"},{"scity":"新北市","scityen":"New Taipei City","sna":"YouBike2.0_狀元公園","sarea":"八里區","ar":"狀元路/文昌五街(西北側)","snaen":"YouBike2.0_ZhuangYuan Park","sareaen":"Bali Dist","aren":"ZhuangYuan Rd. & WenChang 5th St. (Northwest)","sno":"500201023","tot_quantity":"20","sbi_quantity":"4","mday":"20260119T035701","lat":"25.15450","lng":"121.41036","bemp":"14","act":"1","yb2_quantity":"4","eyb_quantity":"0"},{"scity":"新北市","scityen":"New Taipei City","sna":"YouBike2.0_商港三頂罟二路口","sarea":"八里區","ar":"商港三路101號(西北側)","snaen":"YouBike2.0_ShangGang 3rd Rd. & DingGu 2nd Rd. Intersection","sareaen":"Bali Dist","aren":"No. 101, ShangGang 3rd Rd. (Northwest)","sno":"500201024","tot_quantity":"25","sbi_quantity":"12","mday":"20260119T192002","lat":"25.15333","lng":"121.40168","bemp":"12","act":"1","yb2_quantity":"12","eyb_quantity":"0"},{"scity":"新北市","scityen":"New Taipei City","sna":"YouBike2.0_商港六商港三路口","sarea":"八里區","ar":"商港六路/商港三路(西北側)","snaen":"YouBike2.0_ShangGang 6th Rd. & ShangGang 3rd Rd. Intersection","sareaen":"Bali Dist","aren":"ShangGang 6th Rd. & ShangGang 3rd Rd. (Northwest)","sno":"500201025","tot_quantity":"15","sbi_quantity":"5","mday":"20260120T061801","lat":"25.14968","lng":"121.39589","bemp":"9","act":"1","yb2_quantity":"5","eyb_quantity":"0"},{"scity":"新北市","scityen":"New Taipei City","sna":"YouBike2.0_訊庄埔公園","sarea":"八里區","ar":"訊塘二路/添丁街(西北側)","snaen":"YouBike2.0_Xunzhuangpu Park","sareaen":"Bali Dist","aren":"XunTang 2nd Rd. & TianDing St. (Northwest)","sno":"500201026","tot_quantity":"15","sbi_quantity":"4","mday":"20260118T051802","lat":"25.14244","lng":"121.39222","bemp":"11","act":"1","yb2_quantity":"3","eyb_quantity":"1"},{"scity":"新北市","scityen":"New Taipei City","sna":"YouBike2.0_八里左岸自行車道(4.4K福德宮)","sarea":"八里區","ar":"龍米路二段86-9號(自行車道旁)","snaen":"YouBike2.0_Bali Left Bank Cycling Route (4.4K)","sareaen":"Bali Dist","aren":"No. 86-9, Sec. 2, LongMi Rd.","sno":"500201027","tot_quantity":"15","sbi_quantity":"12","mday":"20260119T142515","lat":"25.14315","lng":"121.44789","bemp":"1","act":"1","yb2_quantity":"12","eyb_quantity":"0"},{"scity":"新北市","scityen":"New Taipei City","sna":"YouBike2.0_中山賢一街口","sarea":"八里區","ar":"中山路一段25號","snaen":"YouBike2.0_ZhongShan Rd. & Xian 1st St. Intersection","sareaen":"Bali Dist","aren":"No. 25, Sec. 1, ZhongShan Rd.","sno":"500201028","tot_quantity":"17","sbi_quantity":"13","mday":"20260118T182615","lat":"25.15916","lng":"121.42144","bemp":"4","act":"1","yb2_quantity":"8","eyb_quantity":"5"},{"scity":"新北市","scityen":"New Taipei City","sna":"YouBike2.0_商港一十三行路口","sarea":"八里區","ar":"商港一路/十三行路口(南側)","snaen":"YouBike2.0_ShangGang 1st Rd. & ShiSanHang Rd. Intersection","sareaen":"Bali Dist","aren":"ShangGang 1st Rd. & ShiSanHang Rd. (South)","sno":"500201029","tot_quantity":"30","sbi_quantity":"7","mday":"20260120T025702","lat":"25.15483","lng":"121.40558","bemp":"23","act":"1","yb2_quantity":"5","eyb_quantity":"2"},{"scity":"新北市","scityen":"New Taipei City","sna":"YouBike2.0_淺水灣","sarea":"三芝區","ar":"北勢子42-11號西側","snaen":"YouBike2.0_Qianshui Bay","sareaen":"Sanzhi Dist","aren":"No. 42-11, Beishizi, Sanzhi Dist.(opposite)","sno":"500202001","tot_quantity":"48","sbi_quantity":"13","mday":"20260120T060215","lat":"25.25232","lng":"121.47131","bemp":"35","act":"1","yb2_quantity":"13","eyb_quantity":"0"},{"scity":"新北市","scityen":"New Taipei City","sna":"YouBike2.0_三芝國中","sarea":"三芝區","ar":"淡金路一段38號","snaen":"YouBike2.0_Sanzhi Junior High School","sareaen":"Sanzhi Dist","aren":"No. 38, Sec. 1, Danjin Rd.","sno":"500202002","tot_quantity":"14","sbi_quantity":"8","mday":"20260120T050402","lat":"25.25898","lng":"121.50182","bemp":"6","act":"1","yb2_quantity":"8","eyb_quantity":"0"},{"scity":"新北市","scityen":"New Taipei City","sna":"YouBike2.0_下庄市場","sarea":"八里區","ar":"舊城路21號(前)","snaen":"YouBike2.0_Shia Juang Market","sareaen":"Bali Dist","aren":"No.21, Jiucheng Rd., Bali Dist","sno":"500201001","tot_quantity":"20","sbi_quantity":"10","mday":"20260119T053201","lat":"25.14678","lng":"121.3999","bemp":"10","act":"1","yb2_quantity":"5","eyb_quantity":"5"},{"scity":"新北市","scityen":"New Taipei City","sna":"YouBike2.0_八里行政中心","sarea":"八里區","ar":"十三行路(靠中山路二段路口西南側人行道)","snaen":"YouBike2.0_Bali District Center","sareaen":"Bali Dist","aren":"Shisanhang Rd. & Zhongshan Rd. Intersection (Southwest)","sno":"500201002","tot_quantity":"20","sbi_quantity":"6","mday":"20260120T041802","lat":"25.15397","lng":"121.40721","bemp":"14","act":"1","yb2_quantity":"5","eyb_quantity":"1"},{"scity":"新北市","scityen":"New Taipei City","sna":"YouBike2.0_八里中庄市場綜合大樓","sarea":"八里區","ar":"中山路一段268巷2號(對面汽車停車場)","snaen":"YouBike2.0_Bali Chung Chuang Market Multi-Purpose Building","sareaen":"Bali Dist","aren":"No. 2, Ln. 268, Sec. 1, Zhongshan Rd., Bali Dist.","sno":"500201003","tot_quantity":"28","sbi_quantity":"4","mday":"20260120T042102","lat":"25.15993","lng":"121.41407","bemp":"24","act":"1","yb2_quantity":"4","eyb_quantity":"0"},{"scity":"新北市","scityen":"New Taipei City","sna":"YouBike2.0_大崁國小","sarea":"八里區","ar":"忠八街2號(前)","snaen":"YouBike2.0_DaKan Elementary School","sareaen":"Bali Dist","aren":"No. 2, Zhong 8th St., Bali Dist.","sno":"500201004","tot_quantity":"20","sbi_quantity":"7","mday":"20260120T050402","lat":"25.16064","lng":"121.41938","bemp":"13","act":"1","yb2_quantity":"6","eyb_quantity":"1"},{"scity":"新北市","scityen":"New Taipei City","sna":"YouBike2.0_龍形停車場","sarea":"八里區","ar":"龍米路一段318號(對面停車場)","snaen":"YouBike2.0_Long Xing Parking Tower","sareaen":"Bali Dist","aren":"No. 318, Sec 1, Longmi Rd.(Opposite)","sno":"500201006","tot_quantity":"40","sbi_quantity":"18","mday":"20260120T055902","lat":"25.13041","lng":"121.4513","bemp":"22","act":"1","yb2_quantity":"12","eyb_quantity":"6"},{"scity":"新北市","scityen":"New Taipei City","sna":"YouBike2.0_十三行博物館","sarea":"八里區","ar":"博物館路183號(對面)","snaen":"YouBike2.0_Shihsanhang Museum of Archaeology","sareaen":"Bali Dist","aren":"No. 183, Museum Rd., Bali Dist.(opposite)","sno":"500201007","tot_quantity":"46","sbi_quantity":"13","mday":"20260120T044902","lat":"25.157","lng":"121.406","bemp":"33","act":"1","yb2_quantity":"7","eyb_quantity":"6"},